"Interval|""ms""|0|0|1","Utc|""ms""|0|0|1","FrontLeft|""""|0.0|100.0|100","FrontRight|""""|0.0|100.0|100","RearRight|""""|0.0|100.0|100","RearLeft|""""|0.0|100.0|100","FrontBrake|""Volts""|0.0|5.0|50","RearBrake|""Volts""|0.0|5.0|50","SteeringAng|""Volts""|-105.0|105.0|50","Battery|""Volts""|0.0|20.0|1","AccelX|""G""|-3.0|3.0|25","AccelY|""G""|-3.0|3.0|25","AccelZ|""G""|-3.0|3.0|25","Yaw|""Deg/Sec""|-120|120|25","Pitch|""Deg/Sec""|-120|120|25","Roll|""Deg/Sec""|-120|120|25","FLSpeed|""rpm""|0.0|8000.0|100","FRSpeed|""rpm""|0.0|8000.0|100","RRSpeed|""rpm""|0.0|8000.0|100","RLSpeed|""rpm""|0.0|8000.0|100","RPM|""RPM""|0|12500|50","TPS|""%""|0.0|100.0|50","InjectorPW|""ms""|0.0|100.0|25","Baro|""kPa""|0|105|1","MAP|""kPa""|0|255|25","AFR|""ratio""|0.0|20.0|25","IAT|""C""|-20|205|25","EngineTemp|""C""|0|200|1","OilTemp|""F""|0|300|1","FuelTemp|""C""|0|1024|1","O2|""""|0.0|5.0|50","OilPressure|""psi""|0.0|100.0|50","ECUVolts|""""|-1000.0|1000.0|1","EGT1|""""|-1000|1000|1","EGT2|""""|-1000|1000|1","EGT3|""""|-1000|1000|1","EGT4|""""|-1000|1000|1","Latitude|""Degrees""|-180.0|180.0|50","Longitude|""Degrees""|-180.0|180.0|50","Speed|""MPH""|0.0|150.0|50","Altitude|""ft""|0.0|4000.0|50","GPSSats|""""|0|20|50","GPSQual|""""|0|5|50","GPSDOP|""""|0.0|20.0|50"
40804,1.56E+12,0.66,1.86,0.44,0.31,1,1.01,1.66,,0,-0.01,-1,0,0,0,0,0,0,0,3725,0,2.88,,73,13.99,25,,,,2.01,46.8,,,,,,40.846561,-96.767487,0,1128.2,4,2,2.5
40844,1.56E+12,0.65,1.87,0.45,0.36,1.05,1.02,1.66,,0,-0.02,-1.01,0,0,0,0,0,0,0,3725,0,2.88,,73,13.88,25,,,,1.93,47.33,,,,,,40.846561,-96.767487,0,1128.2,4,2,2.5
40884,1.56E+12,0.65,1.86,0.42,0.32,1.04,0.96,1.66,,0.02,0,-1,0,0,0,0,0,0,0,3745,0,2.88,,73,13.83,25,,,,1.93,47.33,,,,,,40.846561,-96.767487,0,1128.2,4,3,2.5
40924,1.56E+12,0.66,1.87,0.46,0.35,1.03,0.98,1.66,,0.01,0,-1.01,0,0,0,0,0,0,0,3683,0,2.88,,73,13.8,25,,,,1.93,47.33,,,,,,40.846561,-96.767487,0,1128.2,4,3,2.5
40964,1.56E+12,0.64,1.85,0.41,0.32,1.01,0.98,1.65,,0.01,-0.02,-1.01,0,0,0,0,0,0,0,3711,0,2.88,,73,13.76,25,,,,1.9,46.92,,,,,,40.846561,-96.767487,0,1125.9,5,3,1
41004,1.56E+12,0.65,1.86,0.43,0.32,0.99,1.02,1.66,,0,-0.03,-1.02,0,0,0,0,0,0,0,3687,0,2.87,,73,13.76,25,,,,1.9,46.92,,,,,,40.846561,-96.767487,0,1125.9,5,3,1
41044,1.56E+12,0.67,1.86,0.47,0.36,1.03,1,1.66,15.11,0.01,-0.01,-1.04,0,0,0,0,0,0,0,3687,0,2.87,70,73,13.74,25,37,33,32,1.87,47.08,14.5,1,455,561,983,40.846561,-96.767487,0,1125.9,5,3,1
41084,1.56E+12,0.65,1.85,0.44,0.31,1.03,1.04,1.66,,0,-0.03,-1.04,0,0,0,0,0,0,0,3709,0,2.87,,73,13.72,25,,,,1.87,47.08,,,,,,40.846561,-96.767487,0,1125.9,5,3,1
41124,1.56E+12,0.6,1.85,0.46,0.36,1.02,0.99,1.66,,-0.01,-0.02,-1.03,0,0,0,0,0,0,0,3714,0,2.88,,73,13.7,25,,,,1.87,47.08,,,,,,40.846561,-96.767487,0,1125.9,5,3,1
41164,1.56E+12,0.64,1.85,0.41,0.3,1.01,0.97,1.66,,-0.02,0.03,-1.05,0,0,1,0,0,0,0,3752,0,2.88,,73,13.66,25,,,,1.85,47.08,,,,,,40.846561,-96.767487,0,1125.9,5,3,1
41204,1.56E+12,0.59,1.84,0.45,0.35,1.03,0.99,1.65,,-0.02,0.03,-1.05,0,0,0,0,0,0,0,3742,0,2.87,,73,13.66,25,,,,1.85,47.08,,,,,,40.846561,-96.767487,0,1125.9,5,3,1
41244,1.56E+12,0.63,1.84,0.44,0.33,1,0.95,1.66,,-0.03,0.02,-1.02,0,0,0,0,0,0,0,3742,0,2.87,,73,13.61,25,,,,1.8,46.8,,,,,,40.846561,-96.767487,0,1125.9,5,3,1
41284,1.56E+12,0.63,1.86,0.4,0.31,1.05,1.03,1.66,,-0.03,0.02,-1.03,0,0,0,0,0,0,0,3751,0,2.88,,73,13.58,25,,,,1.8,46.8,,,,,,40.846561,-96.767487,0,1125.9,5,3,1
41324,1.56E+12,0.63,1.85,0.4,0.32,1.05,1.03,1.66,,-0.03,0.02,-1.04,0,0,1,0,0,0,0,3745,0,2.89,,73,13.6,25,,,,1.8,46.8,,,,,,40.846561,-96.767487,0,1125.9,5,3,1
41364,1.56E+12,0.65,1.86,0.45,0.33,1.04,1.01,1.66,,-0.03,0.03,-1.04,0,0,0,0,0,0,0,3767,0,2.88,,73,13.57,25,,,,1.79,46.73,,,,,,40.846561,-96.767487,0,1125.9,5,3,1
41404,1.56E+12,0.64,1.87,0.46,0.34,1.01,0.97,1.66,,-0.03,0.02,-1.03,0,0,0,0,0,0,0,3757,0,2.88,,73,13.57,25,,,,1.79,46.73,,,,,,40.846561,-96.767487,0,1125.9,5,3,1
41444,1.56E+12,0.61,1.82,0.46,0.61,1.02,1.07,1.66,,-0.02,0.02,-1.03,0,0,0,0,0,0,0,3757,0,2.88,,73,13.57,25,,,,1.77,45.92,,,,,,40.846561,-96.767487,0,1125.9,5,3,1
41484,1.56E+12,0.61,1.84,0.46,0.36,1.05,1.01,1.66,,-0.01,0.03,-1.03,0,0,0,0,0,0,0,3784,0,2.87,,73,13.51,25,,,,1.77,45.92,,,,,,40.846561,-96.767487,0,1125.9,5,3,1
41524,1.56E+12,0.64,1.85,0.41,0.33,1.06,1.04,1.66,,-0.01,0.02,-1.04,0,0,0,0,0,0,0,3757,0,2.87,,73,13.52,25,,,,1.77,45.92,,,,,,40.846561,-96.767487,0,1125.9,5,3,1
41564,1.56E+12,0.66,1.87,0.45,0.34,1.04,1.01,1.66,,-0.01,-0.01,-1.03,0,0,0,0,0,0,0,3782,0,2.85,,73,13.49,25,,,,1.76,47.27,,,,,,40.846561,-96.767487,0,1125.9,5,3,1
41604,1.56E+12,0.64,1.83,0.41,0.33,1.05,1.03,1.66,,-0.01,-0.01,-1.02,0,0,0,0,0,0,0,3720,0,2.87,,73,13.49,25,,,,1.76,47.27,,,,,,40.846561,-96.767487,0,1125.9,5,3,1
41644,1.56E+12,0.6,1.82,0.4,0.3,1.03,1.02,1.66,,-0.01,0,-1.04,0,0,0,0,0,0,0,3720,0,2.87,,73,13.52,25,,,,1.76,47.27,,,,,,40.846561,-96.767487,0,1125.9,5,3,1
41684,1.56E+12,0.63,1.86,0.46,0.35,1.02,0.98,1.66,,-0.02,-0.01,-1.03,0,0,0,0,0,0,0,3706,0,2.86,,73,13.47,25,,,,1.76,47.27,,,,,,40.846561,-96.767487,0,1125.9,5,3,1
41724,1.56E+12,0.6,1.83,0.46,0.36,1.04,1.01,1.66,,-0.03,-0.02,-1.02,0,0,0,0,0,0,0,3722,0,2.88,,73,13.45,25,,,,1.76,47.27,,,,,,40.846561,-96.767487,0,1125.9,5,3,1
41764,1.56E+12,0.6,1.85,0.46,0.36,1.05,1.03,1.66,,-0.03,0.01,-1.03,0,0,0,0,0,0,0,3695,0,2.85,,73,13.44,25,,,,1.72,47,,,,,,40.846561,-96.767487,0,1125.9,5,3,1
41804,1.56E+12,0.66,1.86,0.43,0.31,1.01,1.03,1.66,,-0.02,-0.01,-1.03,0,0,0,0,0,0,0,3706,0,2.87,,73,13.44,25,,,,1.72,47,,,,,,40.846561,-96.767487,0,1125.9,5,3,1
41844,1.56E+12,0.64,1.87,0.46,0.34,1.02,0.95,1.67,,-0.02,0,-1,0,0,0,0,0,0,0,3706,0,2.87,,73,13.44,25,,,,1.72,47.4,,,,,,40.846561,-96.767487,0,1125.9,5,3,1
41884,1.56E+12,0.66,1.86,0.44,0.32,1,1.02,1.66,,-0.01,-0.01,-1,0,0,0,0,0,0,0,3682,0,2.87,,73,13.41,25,,,,1.72,47.4,,,,,,40.846561,-96.767487,0,1125.9,5,3,1
41924,1.56E+12,0.65,1.87,0.47,0.35,1.02,0.96,1.66,,0.01,0.01,-1,0,0,0,0,0,0,0,3643,0,2.86,,73,13.42,25,,,,1.72,47.4,,,,,,40.846561,-96.767487,0,1125.9,5,3,1
41964,1.56E+12,0.66,1.89,0.45,0.34,1.05,1.02,1.66,,0,0.01,-1,0,0,0,0,0,0,0,3656,0,2.86,,74,13.44,25,,,,1.72,46.52,,,,,,40.846561,-96.767487,0,1125.9,5,3,1
42004,1.56E+12,0.66,1.88,0.44,0.32,1,1.01,1.66,,0.01,-0.01,-1.01,0,0,0,0,0,0,0,3633,0,2.86,,74,13.44,25,,,,1.72,46.52,,,,,,40.846561,-96.767487,0,1125.9,5,3,1
42044,1.56E+12,0.66,1.86,0.45,0.35,1.04,1,1.66,14.96,0.01,0,-1.02,0,0,0,0,0,0,0,3633,0,2.86,70,74,13.48,25,38,33,32,1.75,46.13,14.5,1,460,505,985,40.846561,-96.767487,0,1128.3,6,3,1.4
42084,1.56E+12,0.62,1.83,0.45,0.36,1.05,1.03,1.66,,-0.02,-0.02,-1.02,0,0,0,0,0,0,0,3647,0,2.82,,74,13.48,25,,,,1.75,46.13,,,,,,40.846561,-96.767487,0,1128.3,6,3,1.4
42124,1.56E+12,0.66,1.87,0.46,0.36,1.02,0.99,1.66,,-0.01,0,-1.02,0,0,0,0,0,0,0,3594,0,2.82,,74,13.45,25,,,,1.75,46.13,,,,,,40.846561,-96.767487,0,1128.3,6,3,1.4
42164,1.56E+12,0.62,1.83,0.41,0.35,1.03,1.02,1.66,,0,0.01,-0.98,0,0,0,0,0,0,0,3564,0,2.83,,74,13.47,25,,,,1.74,45.13,,,,,,40.846561,-96.767487,0,1128.3,6,3,1.4
42204,1.56E+12,0.6,1.85,0.45,0.36,1.04,1.01,1.66,,0,0.01,-1.01,0,0,0,0,0,0,0,3581,0,2.8,,74,13.47,25,,,,1.74,45.13,,,,,,40.846561,-96.767487,0,1128.3,6,3,1.4
42244,1.56E+12,0.59,1.85,0.45,0.33,1.04,1.02,1.66,,-0.01,0,-1.03,0,0,0,0,0,0,0,3581,0,2.8,,74,13.47,25,,,,1.75,46.4,,,,,,40.846561,-96.767487,0,1128.3,6,3,1.4
42284,1.56E+12,0.65,1.88,0.45,0.34,1.01,0.97,1.67,,-0.02,-0.02,-1.02,0,0,0,0,0,0,0,3615,0,2.8,,74,13.51,25,,,,1.75,46.4,,,,,,40.846561,-96.767487,0,1128.3,6,3,1.4
42324,1.56E+12,0.66,1.83,0.46,0.36,1.04,1.01,1.67,,0.01,0.01,-1.01,0,0,0,0,0,0,0,3591,0,2.8,,74,13.49,25,,,,1.75,46.4,,,,,,40.846561,-96.767487,0,1128.3,6,3,1.4
42364,1.56E+12,0.63,1.85,0.4,0.35,1.05,1.01,1.67,,0.02,0.02,-0.99,0,0,0,0,0,0,0,3580,0,2.78,,74,13.55,25,,,,1.77,46,,,,,,40.846561,-96.767487,0,1128.3,6,3,1.4
42404,1.56E+12,0.65,1.86,0.42,0.32,1.03,1.02,1.67,,0,0,-1.02,0,0,0,0,0,0,0,3585,0,2.78,,74,13.55,25,,,,1.77,46,,,,,,40.846561,-96.767487,0,1128.3,6,3,1.4
42444,1.56E+12,0.66,1.88,0.44,0.36,1.04,1,1.67,,-0.02,0,-1.03,0,0,0,0,0,0,0,3585,0,2.78,,74,13.57,25,,,,1.8,45.2,,,,,,40.846561,-96.767487,0,1128.3,6,3,1.4
42484,1.56E+12,0.65,1.89,0.44,0.33,1,0.97,1.66,,-0.02,-0.02,-1.02,0,0,0,0,0,0,0,3577,0,2.78,,74,13.6,25,,,,1.8,45.2,,,,,,40.846561,-96.767487,0,1128.3,6,3,1.4
42524,1.56E+12,0.67,1.83,0.47,0.37,1.05,1.02,1.66,,-0.01,0,-1,0,0,0,0,0,0,0,3650,0,2.78,,74,13.61,25,,,,1.8,45.2,,,,,,40.846561,-96.767487,0,1128.3,6,3,1.4
42564,1.56E+12,0.61,1.84,0.46,0.37,1.04,1.03,1.67,,0,-0.01,-1,0,0,0,0,0,0,0,3678,0,2.78,,74,13.7,25,,,,1.82,46.6,,,,,,40.846561,-96.767487,0,1128.3,6,3,1.4
42604,1.56E+12,0.64,1.88,0.46,0.35,1.01,0.97,1.66,,0.01,0,-1.01,0,0,0,0,0,0,0,3647,0,2.78,,74,13.7,25,,,,1.82,46.6,,,,,,40.846561,-96.767487,0,1128.3,6,3,1.4
42644,1.56E+12,0.63,1.85,0.4,0.33,1,0.99,1.66,,0.01,0,-1.03,0,0,0,0,0,0,0,3647,0,2.78,,74,13.76,25,,,,1.91,46.6,,,,,,40.846561,-96.767487,0,1128.3,6,3,1.4
42684,1.56E+12,0.61,1.88,0.46,0.36,1.03,1,1.66,,0,-0.02,-1.04,0,0,0,0,0,0,0,3678,0,2.82,,74,13.89,25,,,,1.91,46.6,,,,,,40.846561,-96.767487,0,1128.3,6,3,1.4
42724,1.56E+12,0.62,1.83,0.42,0.31,1.03,1.03,1.67,,-0.01,-0.04,-1.03,0,0,0,0,0,0,0,3687,0,2.81,,74,13.97,25,,,,1.91,46.6,,,,,,40.846561,-96.767487,0,1128.3,6,3,1.4
42764,1.56E+12,0.6,1.85,0.46,0.36,1.03,1.02,1.67,,-0.02,0,-1.04,0,0,0,0,0,0,0,3677,0,2.85,,74,13.95,25,,,,1.99,48.08,,,,,,40.846561,-96.767487,0,1128.3,6,3,1.4
42804,1.56E+12,0.62,1.83,0.41,0.35,1.05,1.02,1.67,,-0.03,-0.03,-1.04,0,0,0,0,0,0,0,3701,0,2.85,,74,13.95,25,,,,1.99,48.08,,,,,,40.846561,-96.767487,0,1128.3,6,3,1.4
42844,1.56E+12,0.64,1.88,0.47,0.37,1.06,1.04,1.67,,-0.03,-0.03,-1.02,0,0,0,0,0,0,0,3701,0,2.85,,74,13.97,25,,,,1.98,47.33,,,,,,40.846561,-96.767487,0,1128.3,6,3,1.4
42884,1.56E+12,0.66,1.89,0.45,0.34,1.01,0.98,1.67,,-0.03,0.01,-1.02,0,0,0,0,0,0,0,3682,0,2.85,,74,13.98,25,,,,1.98,47.33,,,,,,40.846561,-96.767487,0,1128.3,6,3,1.4
42924,1.56E+12,0.65,1.88,0.45,0.31,1.05,1.04,1.66,,-0.02,0.01,-1.02,0,0,0,0,0,0,0,3694,0,2.89,,74,14.02,25,,,,1.98,47.33,,,,,,40.846561,-96.767487,0,1128.3,6,3,1.4
42964,1.56E+12,0.63,1.85,0.4,0.34,1.04,1,1.67,,-0.02,0,-1,0,0,0,0,0,0,0,3728,0,2.89,,73,13.99,25,,,,2.01,47.67,,,,,,40.846561,-96.767487,0,1128.3,6,3,1.4
43004,1.56E+12,0.6,1.88,0.46,0.36,1.03,0.99,1.66,,-0.03,-0.03,-1,0,0,0,0,0,0,0,3763,0,2.89,,73,13.99,25,,,,2.01,47.67,,,,,,40.846561,-96.767487,0,1128.3,6,3,1.4
43044,1.56E+12,0.66,1.88,0.45,0.37,1.04,1.01,1.66,14.97,-0.01,0.01,-1.01,0,0,0,0,0,0,0,3763,0,2.89,70,73,13.99,25,38,33,32,1.98,47.08,14.5,1,464,417,986,40.846561,-96.767487,0,1128.3,6,3,1.4
43084,1.56E+12,0.63,1.85,0.41,0.36,1.06,1.03,1.66,,-0.01,0.01,-1.02,0,0,0,0,0,0,0,3760,0,2.93,,73,13.95,25,,,,1.98,47.08,,,,,,40.846561,-96.767487,0,1128.3,6,3,1.4
43124,1.56E+12,0.62,1.85,0.43,0.31,1,1.03,1.67,,-0.02,-0.02,-1.01,0,0,0,0,0,0,0,3720,0,2.91,,73,13.95,25,,,,1.98,47.08,,,,,,40.846561,-96.767487,0,1128.3,6,3,1.4
43164,1.56E+12,0.61,1.87,0.46,0.36,1.03,1.03,1.67,,-0.03,-0.03,-1,0,0,0,0,0,0,0,3739,0,2.93,,73,13.91,25,,,,1.96,45.8,,,,,,40.846561,-96.767487,0,1128.3,6,3,1.4
43204,1.56E+12,0.66,1.87,0.43,0.31,0.99,1.03,1.67,,-0.03,-0.01,-1.02,0,0,0,0,0,0,0,3729,0,2.9,,73,13.91,25,,,,1.96,45.8,,,,,,40.846561,-96.767487,0,1128.3,6,3,1.4
43244,1.56E+12,0.61,1.83,0.45,0.36,1.02,1.03,1.67,,-0.01,-0.01,-1.01,0,0,0,0,0,0,0,3729,0,2.9,,73,13.86,25,,,,1.92,46.52,,,,,,40.846561,-96.767487,0,1128.3,6,3,1.4
43284,1.56E+12,0.62,1.9,0.46,0.35,1.02,0.98,1.67,,-0.02,-0.01,-0.99,0,0,0,0,0,0,0,3765,0,2.9,,73,13.77,25,,,,1.92,46.52,,,,,,40.846561,-96.767487,0,1128.3,6,3,1.4
43324,1.56E+12,0.63,1.86,0.44,0.32,0.99,0.98,1.67,,-0.03,-0.02,-1,0,0,0,0,0,0,0,3726,0,2.9,,73,13.72,25,,,,1.92,46.52,,,,,,40.846561,-96.767487,0,1128.3,6,3,1.4
43364,1.56E+12,0.65,1.87,0.46,0.33,0.98,1.01,1.66,,-0.01,0.02,-1,0,0,0,0,0,0,0,3740,0,2.94,,73,13.61,25,,,,1.84,46.4,,,,,,40.846561,-96.767487,0,1128.3,6,3,1.4
43404,1.56E+12,0.65,1.88,0.43,0.32,1,1.01,1.66,,0,0,-1.01,0,0,0,0,0,0,0,3697,0,2.92,,73,13.61,25,,,,1.84,46.4,,,,,,40.846561,-96.767487,0,1128.3,6,3,1.4
43444,1.56E+12,0.63,1.87,0.4,0.33,1.05,1.04,1.66,,0,-0.01,-0.99,0,0,0,0,0,0,0,3697,0,2.92,,73,13.57,25,,,,1.78,46.67,,,,,,40.846561,-96.767487,0,1128.3,6,3,1.4
43484,1.56E+12,0.61,1.88,0.42,0.37,1.04,1.03,1.67,,0,-0.01,-0.99,0,0,0,0,0,0,0,3726,0,2.94,,73,13.49,25,,,,1.78,46.67,,,,,,40.846561,-96.767487,0,1128.3,6,3,1.4
43524,1.56E+12,0.65,1.87,0.46,0.35,1.02,0.97,1.67,,0.01,0.01,-0.99,0,0,0,0,0,0,0,3709,0,2.9,,73,13.45,25,,,,1.78,46.67,,,,,,40.846561,-96.767487,0,1128.3,6,3,1.4
43564,1.56E+12,0.63,1.86,0.4,0.34,1.05,1.03,1.67,,0.01,0,-0.99,0,0,0,0,0,0,0,3677,0,2.9,,73,13.42,25,,,,1.72,46.8,,,,,,40.846561,-96.767487,0,1128.3,6,3,1.4
43604,1.56E+12,0.63,1.9,0.45,0.33,1,1.01,1.67,,0.01,0,-0.99,0,0,0,0,0,0,0,3721,0,2.9,,73,13.42,25,,,,1.72,46.8,,,,,,40.846561,-96.767487,0,1128.3,6,3,1.4
43644,1.56E+12,0.64,1.88,0.48,0.36,1.05,1.03,1.67,,0.02,0,-1,0,0,0,0,0,0,0,3721,0,2.9,,73,13.35,25,,,,1.68,47.48,,,,,,40.846561,-96.767487,0,1128.3,6,3,1.4
43684,1.56E+12,0.66,1.89,0.44,0.32,1,1.01,1.67,,0.01,-0.01,-1.01,0,0,0,0,0,0,0,3720,0,2.91,,73,13.35,25,,,,1.68,47.48,,,,,,40.846561,-96.767487,0,1128.3,6,3,1.4
43724,1.56E+12,0.66,1.89,0.46,0.36,1.04,1,1.67,,0.01,-0.01,-0.97,0,0,0,0,0,0,0,3773,0,2.91,,73,13.38,25,,,,1.68,47.48,,,,,,40.846561,-96.767487,0,1128.3,6,3,1.4
43764,1.56E+12,0.65,1.87,0.42,0.31,1.03,1.03,1.67,,0,-0.03,-0.98,0,0,0,0,0,0,0,3785,0,2.9,,73,13.44,25,,,,1.71,47.27,,,,,,40.846561,-96.767487,0,1128.3,6,3,1.4
43804,1.56E+12,0.66,1.88,0.43,0.31,1.02,1.03,1.67,,-0.01,-0.02,-0.99,0,0,0,0,0,0,0,3846,0,2.92,,73,13.44,25,,,,1.71,47.27,,,,,,40.846561,-96.767487,0,1128.3,6,3,1.4
43844,1.56E+12,0.67,1.88,0.44,0.32,1.02,0.98,1.67,,-0.03,0,-1.02,0,0,0,0,0,0,0,3846,0,2.92,,72,13.44,25,,,,1.74,47.08,,,,,,40.846561,-96.767487,0,1128.3,6,3,1.4
43884,1.56E+12,0.62,1.85,0.4,0.34,1.05,1.02,1.67,,-0.02,0.02,-1.05,0,0,0,0,0,0,0,3867,0,2.91,,72,13.45,25,,,,1.74,47.08,,,,,,40.846561,-96.767487,0,1128.3,6,3,1.4
43924,1.56E+12,0.66,1.89,0.47,0.37,1.04,1,1.66,,0.02,0.02,-1.03,0,0,0,0,0,0,0,3892,0,2.92,,72,13.44,25,,,,1.74,47.08,,,,,,40.846561,-96.767487,0,1128.3,6,3,1.4
43964,1.56E+12,0.65,1.9,0.43,0.32,1,1.03,1.66,,0.03,-0.01,-1.04,0,0,0,0,0,0,0,3930,0,2.91,,72,13.47,25,,,,1.74,47.27,,,,,,40.846561,-96.767487,0,1128.3,6,3,1.4
44004,1.56E+12,0.64,1.89,0.45,0.34,1.01,0.96,1.66,,0.01,0,-0.99,0,0,-1,0,0,0,0,3945,0,2.87,,72,13.47,25,,,,1.74,47.27,,,,,,40.846561,-96.767487,0,1128.3,6,3,1.4
44044,1.56E+12,0.64,1.87,0.42,0.31,1.02,0.96,1.66,14.97,-0.04,0,-0.99,0,-1,0,0,0,0,0,3945,0,2.87,70,71,13.47,25,38,33,32,1.74,47.67,14.5,1,465,379,985,40.846561,-96.767487,0,1128.3,6,3,1.4
44084,1.56E+12,0.66,1.9,0.45,0.34,1,0.96,1.66,,-0.01,-0.03,-0.98,0,0,0,0,0,0,0,3974,0,2.87,,71,13.45,25,,,,1.74,47.67,,,,,,40.846561,-96.767487,0,1128.3,6,3,1.4
44124,1.56E+12,0.63,1.86,0.41,0.33,1,0.99,1.67,,-0.01,-0.04,-0.95,0,-1,-1,0,0,0,0,4010,0,2.83,,71,13.39,25,,,,1.74,47.67,,,,,,40.846561,-96.767487,0,1128.3,6,3,1.4
44164,1.56E+12,0.66,1.89,0.44,0.32,1,1.01,1.67,,-0.04,-0.02,-1,0,-1,0,0,0,0,0,4072,0,2.77,,70,13.41,25,,,,1.71,47.8,,,,,,40.846561,-96.767487,0,1128.3,6,3,1.4
44204,1.56E+12,0.66,1.86,0.45,0.36,1.05,1.01,1.66,,0.01,0,-0.98,0,0,-1,0,0,0,0,4073,0,2.76,,70,13.41,25,,,,1.71,47.8,,,,,,40.846561,-96.767487,0,1128.3,6,3,1.4
44244,1.56E+12,0.61,1.88,0.44,0.34,1.01,1,1.67,,-0.03,0.01,-0.98,0,-1,0,0,0,0,0,4073,0,2.76,,69,13.41,25,,,,1.74,48,,,,,,40.846561,-96.767487,0,1128.3,6,3,1.4
44284,1.56E+12,0.66,1.88,0.43,0.31,1,1.04,1.67,,0.01,0.04,-1,0,0,-1,0,0,0,0,4099,0,2.69,,69,13.48,25,,,,1.74,48,,,,,,40.846561,-96.767487,0,1128.3,6,3,1.4
44324,1.56E+12,0.63,1.87,0.4,0.34,1,0.96,1.67,,-0.02,0.04,-1.04,0,0,0,0,0,0,0,4145,0,2.68,,69,13.52,25,,,,1.74,48,,,,,,40.846561,-96.767487,0,1128.3,6,3,1.4
44364,1.56E+12,0.65,1.88,0.42,0.31,1.03,1.03,1.67,,0.03,0.06,-1.01,0,0,0,0,0,0,0,4127,0,2.63,,68,13.6,25,,,,1.79,48.4,,,,,,40.846561,-96.767487,0,1128.3,6,3,1.4
44404,1.56E+12,0.6,1.89,0.4,0.3,1.03,1.02,1.67,,-0.03,-0.01,-1.04,0,0,1,0,0,0,0,4090,0,2.64,,68,13.6,25,,,,1.79,48.4,,,,,,40.846561,-96.767487,0,1128.3,6,3,1.4
44444,1.56E+12,0.66,1.89,0.46,0.35,1.02,1.02,1.67,,0.01,0,-0.99,0,0,0,0,0,0,0,4090,0,2.64,,68,13.58,25,,,,1.8,46.8,,,,,,40.846561,-96.767487,0,1128.3,6,3,1.4
44484,1.56E+12,0.6,1.87,0.46,0.37,1.04,0.99,1.67,,-0.03,0,-1,0,0,0,0,0,0,0,4104,0,2.61,,68,13.61,25,,,,1.8,46.8,,,,,,40.846561,-96.767487,0,1128.3,6,3,1.4
44524,1.56E+12,0.65,1.88,0.43,0.35,1.02,0.98,1.67,,0.01,0,-0.97,0,0,-1,0,0,0,0,4153,0,2.62,,68,13.61,25,,,,1.8,46.8,,,,,,40.846561,-96.767487,0,1128.3,6,3,1.4
44564,1.56E+12,0.62,1.85,0.4,0.35,1.05,1.02,1.67,,0,0.02,-1.03,0,0,0,0,0,0,0,4158,0,2.59,,68,13.58,25,,,,1.8,47.67,,,,,,40.846561,-96.767487,0,1128.3,6,3,1.4
44604,1.56E+12,0.64,1.9,0.45,0.34,1.01,0.96,1.67,,0.02,0.04,-0.99,0,0,-1,0,0,0,0,4129,0,2.59,,68,13.58,25,,,,1.8,47.67,,,,,,40.846561,-96.767487,0,1128.3,6,3,1.4
44644,1.56E+12,0.61,1.85,0.46,0.37,1.05,1.03,1.67,,-0.01,0.04,-1.06,0,0,1,0,0,0,0,4129,0,2.59,,67,13.57,25,,,,1.76,47.95,,,,,,40.846561,-96.767487,0,1128.3,6,3,1.4
44684,1.56E+12,0.61,1.88,0.46,0.37,1.05,1.01,1.68,,0.02,0.02,-1.01,0,0,0,0,0,0,0,4089,0,2.54,,68,13.49,25,,,,1.76,47.95,,,,,,40.846561,-96.767487,0,1128.3,6,3,1.4
44724,1.56E+12,0.6,1.85,0.46,0.33,1.05,1.03,1.67,,-0.03,-0.02,-1.05,0,0,1,0,0,0,0,4050,0,2.55,,68,13.48,25,,,,1.76,47.95,,,,,,40.846561,-96.767487,0,1128.3,6,3,1.4
44764,1.56E+12,0.66,1.89,0.44,0.32,1,1.01,1.67,,0.01,-0.02,-1.02,0,0,0,0,0,0,0,4048,0,2.61,,68,13.45,25,,,,1.74,48.27,,,,,,40.846561,-96.767487,0,1128.3,6,3,1.4
44804,1.56E+12,0.61,1.88,0.41,0.31,1.02,1.03,1.67,,-0.01,-0.02,-0.99,0,0,0,0,0,0,0,4009,0,2.61,,68,13.45,25,,,,1.74,48.27,,,,,,40.846561,-96.767487,0,1128.3,6,3,1.4
44844,1.56E+12,0.65,1.91,0.45,0.34,1.01,1,1.67,,-0.02,0.02,-1,0,0,0,0,0,0,0,4009,0,2.61,,68,13.44,25,,,,1.71,47.33,,,,,,40.846561,-96.767487,0,1128.3,6,3,1.4
44884,1.56E+12,0.66,1.89,0.44,0.32,0.99,1.01,1.68,,0.02,0.01,-0.94,0,0,0,0,0,0,0,4005,0,2.62,,68,13.36,25,,,,1.71,47.33,,,,,,40.846561,-96.767487,0,1128.3,6,3,1.4
44924,1.56E+12,0.65,1.89,0.42,0.36,1.02,0.98,1.67,,-0.01,-0.01,-0.94,0,0,0,0,0,0,0,3975,0,2.64,,69,13.3,25,,,,1.71,47.33,,,,,,40.846561,-96.767487,0,1128.3,6,3,1.4
44964,1.56E+12,0.6,1.86,0.46,0.36,1.04,1.01,1.67,,-0.05,0.02,-0.97,0,0,0,0,0,0,0,3897,0,2.65,,69,13.24,25,,,,1.64,46.52,,,,,,40.846561,-96.767487,0,1128.3,6,3,1.4
45004,1.56E+12,0.64,1.89,0.46,0.34,1.01,0.96,1.67,,-0.01,-0.01,-0.99,0,0,1,0,0,0,0,3860,0,2.68,,69,13.24,25,,,,1.64,46.52,,,,,,40.846561,-96.767487,0,1128.3,6,3,1.4
45044,1.56E+12,0.65,1.89,0.42,0.31,1.03,0.96,1.67,14.96,0.02,-0.01,-1.01,0,0,0,0,0,0,0,3860,0,2.68,70,69,13.24,25,39,33,32,1.62,47.8,14.5,1,470,467,985,40.846561,-96.767487,0,1128.3,6,3,1.4
45084,1.56E+12,0.66,1.91,0.47,0.36,1.02,0.97,1.67,,0.02,0.01,-1.03,0,0,0,0,0,0,0,3800,0,2.75,,70,13.22,25,,,,1.62,47.8,,,,,,40.846561,-96.767487,0,1128.3,6,3,1.4
45124,1.56E+12,0.65,1.89,0.41,0.35,1.01,0.96,1.67,,0.01,0,-1.03,0,0,0,0,0,0,0,3759,0,2.77,,70,13.24,25,,,,1.62,47.8,,,,,,40.846561,-96.767487,0,1128.3,6,3,1.4
45164,1.56E+12,0.64,1.89,0.41,0.3,1.02,1.03,1.67,,0,0,-1.01,0,0,0,0,0,0,0,3697,0,2.81,,71,13.24,25,,,,1.63,46.48,,,,,,40.846561,-96.767487,0,1128.3,6,3,1.4
45204,1.56E+12,0.64,1.9,0.42,0.36,1.05,1.03,1.67,,-0.03,-0.01,-1.02,0,0,0,0,0,0,0,3577,0,2.87,,71,13.24,25,,,,1.63,46.48,,,,,,40.846561,-96.767487,0,1128.3,6,3,1.4
45244,1.56E+12,0.65,1.89,0.46,0.35,1.03,1.02,1.67,,0,-0.01,-1,0,0,0,0,0,0,0,3577,0,2.87,,72,13.2,25,,,,1.6,46.8,,,,,,40.846561,-96.767487,0,1128.3,6,3,1.4
45284,1.56E+12,0.62,1.87,0.44,0.36,1.05,1.02,1.67,,0,0.01,-0.99,0,0,0,0,0,0,0,3560,0,2.91,,72,13.1,25,,,,1.6,46.8,,,,,,40.846561,-96.767487,0,1128.3,6,3,1.4
45324,1.56E+12,0.64,1.87,0.41,0.35,1,1.01,1.68,,-0.02,0,-1.03,0,0,0,0,0,0,0,3552,0,2.95,,72,13.01,25,,,,1.6,46.8,,,,,,40.846561,-96.767487,0,1128.3,6,3,1.4
45364,1.56E+12,0.66,1.91,0.44,0.33,1,1,1.68,,-0.01,0,-1.03,0,0,0,0,0,0,0,3557,0,2.88,,72,12.95,25,,,,1.5,46.13,,,,,,40.846561,-96.767487,0,1128.3,6,3,1.4
45404,1.56E+12,0.63,1.91,0.43,0.36,1.05,1.03,1.68,,0.01,0,-1.01,0,0,0,0,0,0,0,3527,0,2.88,,72,12.95,25,,,,1.5,46.13,,,,,,40.846561,-96.767487,0,1128.3,6,3,1.4
45444,1.56E+12,0.65,1.91,0.46,0.35,1.03,0.98,1.68,,-0.01,0,-1.02,0,0,0,0,0,0,0,3527,0,2.88,,73,12.92,25,,,,1.48,46.73,,,,,,40.846561,-96.767487,0,1128.3,6,3,1.4
45484,1.56E+12,0.61,1.88,0.46,0.37,1.04,1.01,1.68,,-0.03,-0.03,-1.04,0,0,0,0,0,0,0,3522,0,2.89,,73,12.97,25,,,,1.48,46.73,,,,,,40.846561,-96.767487,0,1128.3,6,3,1.4
45524,1.56E+12,0.63,1.87,0.42,0.36,1.01,1.03,1.68,,0.01,-0.01,-1.01,0,0,0,0,0,0,0,3486,0,2.84,,73,12.99,25,,,,1.48,46.73,,,,,,40.846561,-96.767487,0,1128.3,6,3,1.4
45564,1.56E+12,0.61,1.9,0.46,0.37,1.03,0.99,1.67,,0.01,0.01,-1,0,0,0,0,0,0,0,3538,0,2.84,,73,13.04,25,,,,1.52,46.05,,,,,,40.846561,-96.767487,0,1128.3,6,3,1.4
45604,1.56E+12,0.61,1.9,0.43,0.37,1.07,1.04,1.67,,-0.01,-0.03,-1.02,0,0,0,0,0,0,0,3565,0,2.85,,73,13.04,25,,,,1.52,46.05,,,,,,40.846561,-96.767487,0,1128.3,6,3,1.4
45644,1.56E+12,0.64,1.88,0.4,0.32,1.05,1.03,1.67,,-0.01,-0.01,-1.01,0,0,0,0,0,0,0,3565,0,2.85,,73,13.05,25,,,,1.57,46.48,,,,,,40.846561,-96.767487,0,1128.3,6,3,1.4
45684,1.56E+12,0.6,1.88,0.46,0.36,1.04,1,1.67,,0.01,0,-0.99,0,0,0,0,0,0,0,3574,0,2.81,,73,13.17,25,,,,1.57,46.48,,,,,,40.846561,-96.767487,0,1128.3,6,3,1.4
45724,1.56E+12,0.63,1.87,0.4,0.34,1,0.97,1.68,,0,0.03,-1,0,0,0,0,0,0,0,3543,0,2.81,,73,13.29,25,,,,1.57,46.48,,,,,,40.846561,-96.767487,0,1128.3,6,3,1.4
45764,1.56E+12,0.61,1.86,0.43,0.37,1.05,1.02,1.68,,-0.01,0,-1.02,0,0,0,0,0,0,0,3591,0,2.82,,73,13.42,25,,,,1.68,46.05,,,,,,40.846561,-96.767487,0,1128.3,6,3,1.4
45804,1.56E+12,0.64,1.91,0.42,0.36,1.04,1.02,1.68,,-0.02,-0.02,-1.02,0,0,0,0,0,0,0,3636,0,2.82,,73,13.42,25,,,,1.68,46.05,,,,,,40.846561,-96.767487,0,1128.3,6,3,1.4
45844,1.56E+12,0.6,1.88,0.47,0.36,1.04,1,1.67,,-0.02,0,-1.02,0,0,0,0,0,0,0,3636,0,2.82,,73,13.48,25,,,,1.76,47.08,,,,,,40.846561,-96.767487,0,1128.3,6,3,1.4
45884,1.56E+12,0.63,1.87,0.4,0.3,1.05,0.99,1.67,,0,0.01,-0.98,0,0,-1,0,0,0,0,3625,0,2.81,,73,13.57,25,,,,1.76,47.08,,,,,,40.846561,-96.767487,0,1128.3,6,3,1.4
45924,1.56E+12,0.62,1.85,0.44,0.36,1.02,1.02,1.68,,0.01,0.02,-0.99,0,0,0,0,0,0,0,3624,0,2.81,,73,13.63,25,,,,1.76,47.08,,,,,,40.846561,-96.767487,0,1128.3,6,3,1.4
45964,1.56E+12,0.66,1.91,0.46,0.34,1.02,0.97,1.68,,0.02,0.02,-1,0,0,0,0,0,0,0,3630,0,2.83,,73,13.7,25,,,,1.83,47.2,,,,,,40.846561,-96.767487,0,1128.3,6,3,1.4
46004,1.56E+12,0.63,1.88,0.45,0.34,1,0.96,1.68,,0,-0.02,-1.02,0,0,0,0,0,0,0,3654,0,2.83,,73,13.7,25,,,,1.83,47.2,,,,,,40.846561,-96.767487,0,1128.3,6,3,1.4
46044,1.56E+12,0.6,1.86,0.44,0.35,1.03,1.01,1.68,14.93,-0.01,-0.01,-1.03,0,0,0,0,0,0,0,3654,0,2.83,70,73,13.79,25,39,33,32,1.92,46.48,14.5,1,460,407,983,40.846561,-96.767487,0,1128.3,6,3,1.4
46084,1.56E+12,0.65,1.91,0.46,0.35,1.02,0.97,1.68,,-0.02,-0.01,-1.03,0,0,0,0,0,0,0,3629,0,2.83,,73,13.89,25,,,,1.92,46.48,,,,,,40.846561,-96.767487,0,1128.3,6,3,1.4
46124,1.56E+12,0.67,1.92,0.43,0.31,1.01,0.97,1.68,,-0.02,-0.03,-1.01,0,0,0,0,0,0,0,3630,0,2.83,,73,13.94,25,,,,1.92,46.48,,,,,,40.846561,-96.767487,0,1128.3,6,3,1.4
46164,1.56E+12,0.66,1.9,0.46,0.34,1.01,0.96,1.68,,0,-0.01,-1,0,0,0,0,0,0,0,3626,0,2.83,,73,13.95,25,,,,1.98,46.05,,,,,,40.846561,-96.767487,0,1128.3,6,3,1.4
46204,1.56E+12,0.62,1.87,0.42,0.31,1,1.02,1.68,,0,0,-0.99,0,0,0,0,0,0,0,3630,0,2.83,,73,13.95,25,,,,1.98,46.05,,,,,,40.846561,-96.767487,0,1128.3,6,3,1.4
46244,1.56E+12,0.61,1.91,0.46,0.36,1.03,0.99,1.68,,0,0.01,-1.01,0,0,0,0,0,0,0,3630,0,2.83,,73,13.95,25,,,,1.96,47,,,,,,40.846561,-96.767487,0,1128.3,6,3,1.4
46284,1.56E+12,0.65,1.89,0.46,0.36,1.03,1,1.67,,-0.01,-0.01,-1.04,0,0,0,0,0,0,0,3626,0,2.83,,73,13.89,25,,,,1.96,47,,,,,,40.846554,-96.767471,0,1191.5,6,3,1.4
46324,1.56E+12,0.63,1.89,0.4,0.33,1,0.98,1.68,,-0.02,-0.03,-1.02,0,0,0,0,0,0,0,3617,0,2.83,,73,13.83,25,,,,1.96,47,,,,,,40.846554,-96.767471,0,1191.5,6,3,1.4
46364,1.56E+12,0.65,1.93,0.47,0.36,1.02,0.97,1.67,,-0.03,0,-1.02,0,0,0,0,0,0,0,3669,0,2.83,,73,13.79,25,,,,1.92,47.6,,,,,,40.846554,-96.767471,0,1191.5,6,3,1.4
46404,1.56E+12,0.63,1.9,0.47,0.36,1.06,1.03,1.67,,0,0.01,-1,0,0,0,0,0,0,0,3645,0,2.81,,73,13.79,25,,,,1.92,47.6,,,,,,40.846554,-96.767471,0,1191.5,6,3,1.4
46444,1.56E+12,0.65,1.89,0.42,0.31,1.04,1.04,1.67,,0,0.01,-0.97,0,0,0,0,0,0,0,3645,0,2.81,,73,13.83,25,,,,1.93,47.08,,,,,,40.846554,-96.767471,0,1191.5,6,3,1.4
46484,1.56E+12,0.64,1.86,0.42,0.36,1.05,1.03,1.67,,0,0,-0.99,0,0,0,0,0,0,0,3637,0,2.81,,73,13.86,25,,,,1.93,47.08,,,,,,40.846554,-96.767471,0,1191.5,6,3,1.4
46524,1.56E+12,0.66,1.91,0.43,0.32,1,0.98,1.67,,0,0,-1.02,0,0,0,0,0,0,0,3620,0,2.81,,73,13.92,25,,,,1.93,47.08,,,,,,40.846554,-96.767471,0,1191.5,6,3,1.4
46564,1.56E+12,0.6,1.89,0.46,0.36,1.03,0.99,1.67,,-0.01,-0.03,-1.03,0,0,0,0,0,0,0,3642,0,2.81,,73,13.89,25,,,,1.96,46.33,,,,,,40.846554,-96.767471,0,1191.5,6,3,1.4
46604,1.56E+12,0.65,1.9,0.43,0.35,1.03,0.97,1.67,,-0.02,-0.01,-1.03,0,0,0,0,0,0,0,3624,0,2.81,,73,13.89,25,,,,1.96,46.33,,,,,,40.846554,-96.767471,0,1191.5,6,3,1.4
46644,1.56E+12,0.66,1.91,0.47,0.36,1.03,0.98,1.67,,-0.01,0,-1.01,0,0,0,0,0,0,0,3624,0,2.81,,73,13.89,25,,,,1.94,46.48,,,,,,40.846554,-96.767471,0,1191.5,6,3,1.4
46684,1.56E+12,0.62,1.91,0.42,0.33,1.05,1.03,1.67,,-0.02,-0.01,-1,0,0,0,0,0,0,0,3636,0,2.81,,73,13.83,25,,,,1.94,46.48,,,,,,40.846554,-96.767471,0,1191.5,6,3,1.4
46724,1.56E+12,0.61,1.87,0.45,0.36,1.05,1.03,1.68,,0.02,0,-0.99,0,0,0,0,0,0,0,3680,0,2.83,,73,13.83,25,,,,1.94,46.48,,,,,,40.846554,-96.767471,0,1191.5,6,3,1.4
46764,1.56E+12,0.63,1.88,0.41,0.36,1.04,1.03,1.68,,0.02,-0.01,-0.99,0,0,0,0,0,0,0,3697,0,2.82,,73,13.8,25,,,,1.91,46.67,,,,,,40.846554,-96.767471,0,1191.5,6,3,1.4
46804,1.56E+12,0.61,1.88,0.45,0.31,1.04,1.03,1.68,,0.01,-0.02,-1.01,0,0,0,0,0,0,0,3707,0,2.82,,73,13.8,25,,,,1.91,46.67,,,,,,40.846554,-96.767471,0,1191.5,6,3,1.4
46844,1.56E+12,0.65,1.89,0.41,0.31,1.02,1.03,1.68,,0.02,-0.01,-1.03,0,0,0,0,0,0,0,3707,0,2.82,,73,13.82,25,,,,1.92,46.73,,,,,,40.846554,-96.767471,0,1191.5,6,3,1.4
46884,1.56E+12,0.65,1.92,0.46,0.35,1.02,0.97,1.68,,0.02,-0.01,-1.03,0,0,0,0,0,0,0,3731,0,2.84,,73,13.83,25,,,,1.92,46.73,,,,,,40.846554,-96.767471,0,1191.5,6,3,1.4
46924,1.56E+12,0.59,1.89,0.46,0.36,1.04,1.03,1.68,,0,-0.02,-1.01,0,0,0,0,0,0,0,3737,0,2.84,,73,13.92,25,,,,1.92,46.73,,,,,,40.846554,-96.767471,0,1191.5,6,3,1.4
46964,1.56E+12,0.65,1.89,0.42,0.31,1.02,1.03,1.68,,0,0,-1.03,0,0,0,0,0,0,0,3711,0,2.82,,73,13.92,25,,,,1.97,46.88,,,,,,40.846554,-96.767471,0,1191.5,6,3,1.4
47004,1.56E+12,0.61,1.91,0.48,0.34,1.05,0.95,1.68,,-0.01,0.02,-1.03,0,0,0,0,0,0,0,3658,0,2.84,,73,13.92,25,,,,1.97,46.88,,,,,,40.846554,-96.767471,0,1191.5,6,3,1.4
47044,1.56E+12,0.62,1.88,0.45,0.36,1.05,1.02,1.68,15.21,-0.02,0,-1.02,0,0,0,0,0,0,0,3658,0,2.84,70,73,13.91,25,39,33,32,1.96,46.48,14.5,220,461,369,986,40.846554,-96.767471,0,1190.9,7,3,2.2
47084,1.56E+12,0.66,1.93,0.47,0.37,1.04,1,1.67,,-0.02,0.01,-1.03,0,0,0,0,0,0,0,3677,0,2.84,,73,13.86,25,,,,1.96,46.48,,,,,,40.846554,-96.767471,0,1190.9,7,3,2.2
47124,1.56E+12,0.63,1.89,0.41,0.35,1.06,1,1.68,,-0.01,0.01,-1.01,0,0,0,0,0,0,0,3681,0,2.84,,73,13.8,25,,,,1.96,46.48,,,,,,40.846554,-96.767471,0,1190.9,7,3,2.2
47164,1.56E+12,0.66,1.91,0.44,0.33,1,1,1.68,,0,-0.01,-0.99,0,0,0,0,0,0,0,3662,0,2.84,,73,13.7,25,,,,1.89,46.92,,,,,,40.84655,-96.767471,0,1191.9,8,3,1.8
47204,1.56E+12,0.64,1.9,0.41,0.34,1.01,0.97,1.68,,0.01,0.02,-0.98,0,0,0,0,0,0,0,3629,0,2.84,,73,13.7,25,,,,1.89,46.92,,,,,,40.84655,-96.767471,0,1191.9,8,3,1.8
47244,1.56E+12,0.63,1.89,0.42,0.36,1.05,1.03,1.68,,0,0.02,-1,0,0,0,0,0,0,0,3629,0,2.84,,73,13.52,25,,,,1.76,47.4,,,,,,40.84655,-96.767471,0,1191.9,8,3,1.8
47284,1.56E+12,0.65,1.91,0.45,0.36,1.03,1,1.68,,-0.01,-0.01,-1.01,0,0,0,0,0,0,0,3627,0,2.84,,73,13.48,25,,,,1.76,47.4,,,,,,40.84655,-96.767471,0,1191.9,8,3,1.8
47324,1.56E+12,0.66,1.91,0.44,0.33,1,0.99,1.67,,-0.03,0.01,-1.02,0,0,0,0,0,0,0,3640,0,2.83,,73,13.45,25,,,,1.76,47.4,,,,,,40.84655,-96.767471,0,1191.9,8,3,1.8
47364,1.56E+12,0.64,1.9,0.42,0.32,1.04,1.03,1.68,,-0.02,0,-1,0,0,0,0,0,0,0,3641,0,2.83,,73,13.45,25,,,,1.73,46.52,,,,,,40.84655,-96.767471,0,1191.9,8,3,1.8
47404,1.56E+12,0.67,1.92,0.45,0.34,1.04,1,1.68,,-0.01,-0.01,-1,0,0,0,0,0,0,0,3624,0,2.83,,73,13.45,25,,,,1.73,46.52,,,,,,40.84655,-96.767471,0,1191.9,8,3,1.8
47444,1.56E+12,0.66,1.9,0.43,0.32,1.01,1.02,1.68,,0.01,0.02,-1,0,0,0,0,0,0,0,3624,0,2.83,,73,13.41,25,,,,1.72,46.48,,,,,,40.84655,-96.767471,0,1191.9,8,3,1.8
47484,1.56E+12,0.63,1.86,0.44,0.33,1,1.02,1.68,,0,0,-1.01,0,0,0,0,0,0,0,3624,0,2.82,,73,13.44,25,,,,1.72,46.48,,,,,,40.84655,-96.767471,0,1191.9,8,3,1.8
47524,1.56E+12,0.6,1.88,0.46,0.36,1.04,1,1.67,,0,0,-1.04,0,0,0,0,0,0,0,3608,0,2.82,,73,13.45,25,,,,1.72,46.48,,,,,,40.84655,-96.767471,0,1191.9,8,3,1.8
47564,1.56E+12,0.66,1.93,0.45,0.34,1.01,0.96,1.68,,-0.02,0.01,-1.04,0,0,0,0,0,0,0,3605,0,2.82,,73,13.52,25,,,,1.76,46.73,,,,,,40.84655,-96.767471,0,1191.9,8,3,1.8
47604,1.56E+12,0.6,1.91,0.46,0.36,1.05,1.02,1.68,,-0.02,-0.02,-1.01,0,0,0,0,0,0,0,3629,0,2.82,,73,13.52,25,,,,1.76,46.73,,,,,,40.84655,-96.767471,0,1191.9,8,3,1.8
47644,1.56E+12,0.59,1.91,0.44,0.37,1.04,1,1.68,,-0.01,0,-1.02,0,0,0,0,0,0,0,3629,0,2.82,,73,13.58,25,,,,1.8,47.33,,,,,,40.84655,-96.767471,0,1191.9,8,3,1.8
47684,1.56E+12,0.66,1.93,0.46,0.36,1,1,1.68,,0,0.01,-0.99,0,0,0,0,0,0,0,3638,0,2.82,,73,13.63,25,,,,1.8,47.33,,,,,,40.84655,-96.767471,0,1191.9,8,3,1.8
47724,1.56E+12,0.63,1.92,0.46,0.36,1.03,0.98,1.68,,0,0.01,-1,0,0,0,0,0,0,0,3655,0,2.82,,73,13.64,25,,,,1.8,47.33,,,,,,40.84655,-96.767471,0,1191.9,8,3,1.8
47764,1.56E+12,0.61,1.92,0.46,0.37,1.04,1,1.68,,0.02,0,-1.01,0,0,0,0,0,0,0,3693,0,2.83,,73,13.69,25,,,,1.83,47.08,,,,,,40.84655,-96.767471,0,1191.9,8,3,1.8
47804,1.56E+12,0.65,1.93,0.44,0.33,1.03,1.01,1.68,,0.02,0.02,-1.01,0,0,0,0,0,0,0,3699,0,2.81,,73,13.69,25,,,,1.83,47.08,,,,,,40.84655,-96.767471,0,1191.9,8,3,1.8
47844,1.56E+12,0.65,1.92,0.44,0.33,1,0.99,1.68,,0.02,0,-1.01,0,0,0,0,0,0,0,3699,0,2.81,,73,13.73,25,,,,1.86,46.92,,,,,,40.84655,-96.767471,0,1191.9,8,3,1.8
47884,1.56E+12,0.63,1.9,0.44,0.34,1,0.98,1.68,,0.02,0,-1.02,0,0,0,0,0,0,0,3725,0,2.82,,73,13.7,25,,,,1.86,46.92,,,,,,40.84655,-96.767471,0,1191.9,8,3,1.8
47924,1.56E+12,0.62,1.88,0.35,0.37,1.04,1.02,1.68,,0.01,0.01,-1.03,0,0,0,0,0,0,0,3726,0,2.84,,73,13.7,25,,,,1.86,46.92,,,,,,40.84655,-96.767471,0,1191.9,8,3,1.8
47964,1.56E+12,0.53,1.93,0.46,0.38,1.03,0.99,1.68,,-0.01,0.01,-1.03,0,0,0,0,0,0,0,3668,0,2.81,,73,13.73,25,,,,1.85,47.48,,,,,,40.84655,-96.767471,0,1191.9,8,3,1.8
48004,1.56E+12,0.6,1.9,0.45,0.36,1.04,1.01,1.68,,-0.02,-0.01,-1.03,0,0,0,0,0,0,0,3651,0,2.82,,73,13.73,25,,,,1.85,47.48,,,,,,40.84655,-96.767471,0,1191.9,8,3,1.8
48044,1.56E+12,0.66,1.92,0.46,0.34,1.01,0.97,1.68,15,-0.03,0,-1.04,0,0,0,0,0,0,0,3651,0,2.82,70,73,13.77,25,40,33,32,1.89,47.8,14.5,647,461,338,985,40.84655,-96.767471,0,1191.9,8,3,1.8
48084,1.56E+12,0.62,1.89,0.42,0.31,1.03,1.03,1.68,,-0.01,0.01,-1,0,0,0,0,0,0,0,3689,0,2.82,,73,13.72,25,,,,1.89,47.8,,,,,,40.84655,-96.767471,0,1191.9,8,3,1.8
48124,1.56E+12,0.64,1.9,0.4,0.32,1.05,1.03,1.68,,0,0.02,-0.98,0,0,0,0,0,0,0,3639,0,2.82,,73,13.67,25,,,,1.89,47.8,,,,,,40.84655,-96.767471,0,1191.9,8,3,1.8
48164,1.56E+12,0.62,1.93,0.43,0.31,1,1.02,1.68,,0.02,0.01,-0.98,0,0,0,0,0,0,0,3670,0,2.82,,73,13.48,25,,,,1.8,47.13,,,,,,40.84655,-96.767471,0,1191.9,8,3,1.8
48204,1.56E+12,0.64,1.93,0.46,0.35,1.05,1.01,1.68,,0,0.01,-0.99,0,0,0,0,0,0,0,3670,0,2.82,,73,13.48,25,,,,1.8,47.13,,,,,,40.84655,-96.767471,0,1191.9,8,3,1.8
48244,1.56E+12,0.66,1.92,0.42,0.34,0.99,1.02,1.68,,0.01,0,-1.02,0,0,0,0,0,0,0,3670,0,2.82,,73,13.45,25,,,,1.71,46.52,,,,,,40.84655,-96.767471,0,1191.9,8,3,1.8
48284,1.56E+12,0.61,1.91,0.47,0.35,1.03,1.03,1.68,,0,0,-1.03,0,0,0,0,0,0,0,3684,0,2.82,,73,13.41,25,,,,1.71,46.52,,,,,,40.84655,-96.767471,0,1191.9,8,3,1.8
48324,1.56E+12,0.63,1.9,0.41,0.32,1.04,1.03,1.68,,-0.01,0,-1.03,0,0,0,0,0,0,0,3674,0,2.82,,73,13.44,25,,,,1.71,46.52,,,,,,40.84655,-96.767471,0,1191.9,8,3,1.8
48364,1.56E+12,0.62,1.88,0.41,0.35,1.04,1.01,1.68,,-0.02,-0.01,-1.02,0,0,0,0,0,0,0,3655,0,2.8,,73,13.42,25,,,,1.72,47.13,,,,,,40.84655,-96.767471,0,1191.9,8,3,1.8
48404,1.56E+12,0.62,1.92,0.46,0.36,1.03,1.03,1.68,,-0.03,0,-1.03,0,0,0,0,0,0,0,3662,0,2.82,,73,13.42,25,,,,1.72,47.13,,,,,,40.84655,-96.767471,0,1191.9,8,3,1.8
48444,1.56E+12,0.66,1.93,0.45,0.33,0.99,0.99,1.68,,-0.02,0,-1.01,0,0,0,0,0,0,0,3662,0,2.82,,73,13.45,25,,,,1.72,46.33,,,,,,40.84655,-96.767471,0,1191.9,8,3,1.8
48484,1.56E+12,0.63,1.88,0.4,0.32,1,1,1.68,,-0.02,0,-1,0,0,0,0,0,0,0,3666,0,2.82,,73,13.44,25,,,,1.72,46.33,,,,,,40.84655,-96.767471,0,1191.9,8,3,1.8
48524,1.56E+12,0.65,1.92,0.45,0.34,1.01,0.97,1.68,,0,0.02,-0.99,0,0,0,0,0,0,0,3689,0,2.82,,73,13.48,25,,,,1.72,46.33,,,,,,40.84655,-96.767471,0,1191.9,8,3,1.8
48564,1.56E+12,0.65,1.9,0.45,0.36,1.04,1.01,1.68,,0,0.02,-0.99,0,0,0,0,0,0,0,3727,0,2.8,,73,13.47,25,,,,1.74,45.92,,,,,,40.84655,-96.767471,0,1191.9,8,3,1.8
48604,1.56E+12,0.61,1.9,0.46,0.36,1.04,1.03,1.68,,0,0.01,-0.99,0,0,0,0,0,0,0,3727,0,2.81,,73,13.47,25,,,,1.74,45.92,,,,,,40.84655,-96.767471,0,1191.9,8,3,1.8
48644,1.56E+12,0.63,1.9,0.41,0.34,1.06,1.03,1.68,,0.01,0.02,-0.98,0,0,0,0,0,0,0,3727,0,2.81,,73,13.52,25,,,,1.78,46.33,,,,,,40.84655,-96.767471,0,1191.9,8,3,1.8
48684,1.56E+12,0.65,1.91,0.43,0.35,1.02,0.97,1.68,,0.02,0.03,-0.99,0,0,0,0,0,0,0,3723,0,2.81,,73,13.57,25,,,,1.78,46.33,,,,,,40.84655,-96.767471,0,1191.9,8,3,1.8
48724,1.56E+12,0.65,1.92,0.43,0.31,1.02,1.03,1.69,,0.01,0.01,-0.99,0,0,0,0,0,0,0,3718,0,2.8,,73,13.63,25,,,,1.78,46.33,,,,,,40.84655,-96.767471,0,1191.9,8,3,1.8
48764,1.56E+12,0.66,1.9,0.47,0.36,1.04,1,1.68,,0.01,0.01,-1,0,0,0,0,0,0,0,3703,0,2.82,,73,13.64,25,,,,1.82,47,,,,,,40.84655,-96.767471,0,1191.9,8,3,1.8
48804,1.56E+12,0.63,1.88,0.41,0.36,1.06,1.01,1.69,,0.02,0.01,-1.01,0,0,0,0,0,0,0,3692,0,2.83,,73,13.64,25,,,,1.82,47,,,,,,40.84655,-96.767471,0,1191.9,8,3,1.8
48844,1.56E+12,0.66,1.93,0.45,0.33,1,0.97,1.68,,0,0,-1.02,0,0,0,0,0,0,0,3692,0,2.83,,73,13.63,25,,,,1.83,46.25,,,,,,40.84655,-96.767471,0,1191.9,8,3,1.8
48884,1.56E+12,0.65,1.91,0.43,0.35,1.02,0.97,1.68,,-0.02,-0.01,-1.03,0,0,0,0,0,0,0,3657,0,2.83,,73,13.64,25,,,,1.83,46.25,,,,,,40.84655,-96.767471,0,1191.9,8,3,1.8
48924,1.56E+12,0.65,1.94,0.43,0.31,1,1.01,1.68,,-0.02,0.01,-1.02,0,0,0,0,0,0,0,3633,0,2.85,,73,13.58,25,,,,1.83,46.25,,,,,,40.84655,-96.767471,0,1191.9,8,3,1.8
48964,1.56E+12,0.63,1.92,0.43,0.32,1,1.03,1.68,,-0.01,0.01,-1.01,0,0,0,0,0,0,0,3644,0,2.85,,73,13.52,25,,,,1.8,46.4,,,,,,40.84655,-96.767471,0,1191.9,8,3,1.8
49004,1.56E+12,0.67,1.93,0.45,0.33,1,1,1.68,,0,0.03,-0.99,0,0,0,0,0,0,0,3602,0,2.83,,73,13.52,25,,,,1.8,46.4,,,,,,40.84655,-96.767471,0,1191.9,8,3,1.8
49044,1.56E+12,0.63,1.9,0.4,0.33,1.05,1.03,1.68,14.97,0.02,0.03,-0.99,0,0,0,0,0,0,0,3602,0,2.83,70,73,13.48,25,40,33,32,1.74,46.52,14.5,851,461,334,985,40.84655,-96.767471,0,1191.9,8,3,1.8
49084,1.56E+12,0.66,1.93,0.45,0.36,1.04,1.01,1.68,,-0.01,0.01,-1.01,0,0,0,0,0,0,0,3600,0,2.8,,73,13.45,25,,,,1.74,46.52,,,,,,40.84655,-96.767471,0,1191.9,8,3,1.8
49124,1.56E+12,0.62,1.89,0.4,0.35,1.04,1.02,1.68,,-0.02,0,-1.02,0,0,0,0,0,0,0,3619,0,2.81,,73,13.41,25,,,,1.74,46.52,,,,,,40.84655,-96.767471,0,1191.9,8,3,1.8
49164,1.56E+12,0.63,1.93,0.44,0.32,1,1.01,1.68,,-0.02,-0.01,-1.02,0,0,0,0,0,0,0,3606,0,2.81,,73,13.42,25,,,,1.73,47.33,,,,,,40.84655,-96.767471,0,1191.9,8,3,1.8
49204,1.56E+12,0.64,1.92,0.42,0.31,1.04,0.97,1.68,,0,-0.01,-1,0,0,0,0,0,0,0,3591,0,2.8,,73,13.42,25,,,,1.73,47.33,,,,,,40.84655,-96.767471,0,1191.9,8,3,1.8
49244,1.56E+12,0.62,1.93,0.46,0.36,1.03,0.99,1.68,,0.01,0.02,-1,0,0,0,0,0,0,0,3591,0,2.8,,73,13.42,25,,,,1.73,46.48,,,,,,40.84655,-96.767471,0,1191.9,8,3,1.8
49284,1.56E+12,0.63,1.93,0.46,0.36,1.05,1.03,1.68,,-0.01,0.01,-1,0,0,0,0,0,0,0,3611,0,2.8,,73,13.45,25,,,,1.73,46.48,,,,,,40.84655,-96.767471,0,1191.9,8,3,1.8
49324,1.56E+12,0.61,1.89,0.45,0.35,1.03,1.01,1.68,,-0.01,-0.01,-1.04,0,0,1,0,0,0,0,3614,0,2.8,,73,13.47,25,,,,1.73,46.48,,,,,,40.84655,-96.767471,0,1191.9,8,3,1.8
49364,1.56E+12,0.62,1.89,0.43,0.31,1.02,1.03,1.68,,-0.01,-0.03,-1.03,0,0,0,0,0,0,0,3606,0,2.79,,73,13.49,25,,,,1.75,46.48,,,,,,40.84655,-96.767471,0,1191.9,8,3,1.8
49404,1.56E+12,0.62,1.9,0.42,0.36,1.05,1.02,1.68,,-0.01,-0.02,-1,0,0,0,0,0,0,0,3647,0,2.79,,73,13.49,25,,,,1.75,46.48,,,,,,40.84655,-96.767471,0,1191.9,8,3,1.8
49444,1.56E+12,0.66,1.95,0.44,0.33,1,0.99,1.69,,0.02,0.02,-0.99,0,0,0,0,0,0,0,3647,0,2.79,,73,13.47,25,,,,1.75,47.33,,,,,,40.84655,-96.767471,0,1191.9,8,3,1.8
49484,1.56E+12,0.66,1.93,0.45,0.33,1.05,0.99,1.69,,0.01,0.01,-0.99,0,0,0,0,0,0,0,3634,0,2.79,,73,13.48,25,,,,1.75,47.33,,,,,,40.84655,-96.767471,0,1191.9,8,3,1.8
49524,1.56E+12,0.61,1.89,0.46,0.36,1.04,1,1.68,,0,0,-1.03,0,0,0,0,0,0,0,3629,0,2.79,,73,13.52,25,,,,1.75,47.33,,,,,,40.84655,-96.767471,0,1191.9,8,3,1.8
49564,1.56E+12,0.6,1.88,0.41,0.3,0.99,1.02,1.69,,-0.02,-0.01,-1.04,0,0,0,0,0,0,0,3592,0,2.79,,73,13.58,25,,,,1.78,47.4,,,,,,40.84655,-96.767471,0,1191.9,8,3,1.8
49604,1.56E+12,0.66,1.95,0.44,0.33,1,0.97,1.68,,-0.02,-0.03,-1.03,0,0,0,0,0,0,0,3609,0,2.79,,73,13.58,25,,,,1.78,47.4,,,,,,40.84655,-96.767471,0,1191.9,8,3,1.8
49644,1.56E+12,0.64,1.93,0.46,0.35,1.02,0.97,1.68,,0,0,-1.01,0,0,0,0,0,0,0,3609,0,2.79,,73,13.6,25,,,,1.81,46.88,,,,,,40.84655,-96.767471,0,1191.9,8,3,1.8
49684,1.56E+12,0.64,1.92,0.4,0.3,1.02,0.96,1.69,,0,0,-0.99,0,0,0,0,0,0,0,3665,0,2.79,,74,13.63,25,,,,1.81,46.88,,,,,,40.84655,-96.767471,0,1191.9,8,3,1.8
49724,1.56E+12,0.66,1.93,0.43,0.32,0.99,1,1.69,,0,0,-0.99,0,0,0,0,0,0,0,3679,0,2.79,,73,13.69,25,,,,1.81,46.88,,,,,,40.84655,-96.767471,0,1191.9,8,3,1.8
49764,1.56E+12,0.61,1.88,0.42,0.31,1.03,1.02,1.69,,0.01,0.01,-1,0,0,0,0,0,0,0,3651,0,2.79,,73,13.72,25,,,,1.85,45.92,,,,,,40.84655,-96.767471,0,1191.9,8,3,1.8
49804,1.56E+12,0.63,1.9,0.4,0.29,1.04,1.04,1.69,,0.01,0,-1.02,0,0,0,0,0,0,0,3698,0,2.8,,73,13.72,25,,,,1.85,45.92,,,,,,40.84655,-96.767471,0,1191.9,8,3,1.8
49844,1.56E+12,0.59,1.9,0.45,0.36,1.02,1.02,1.69,,0,-0.02,-1.01,0,0,0,0,0,0,0,3698,0,2.8,,73,13.76,25,,,,1.89,46.25,,,,,,40.84655,-96.767471,0,1191.9,8,3,1.8
49884,1.56E+12,0.6,1.9,0.45,0.35,1.04,1.02,1.68,,-0.01,0.01,-1.03,0,0,0,0,0,0,0,3666,0,2.8,,73,13.8,25,,,,1.89,46.25,,,,,,40.84655,-96.767471,0,1191.9,8,3,1.8
49924,1.56E+12,0.62,1.9,0.4,0.35,1.05,1.03,1.68,,-0.02,-0.02,-1.04,0,0,0,0,0,0,0,3648,0,2.81,,73,13.89,25,,,,1.89,46.25,,,,,,40.84655,-96.767471,0,1191.9,8,3,1.8
49964,1.56E+12,0.61,1.9,0.41,0.33,1.05,1.03,1.69,,-0.01,-0.02,-1,0,0,0,0,0,0,0,3599,0,2.83,,73,13.86,25,,,,1.95,46.88,,,,,,40.84655,-96.767471,0,1191.9,8,3,1.8
50004,1.56E+12,0.61,1.93,0.46,0.36,1.04,1.01,1.69,,0.01,0.02,-1,0,0,0,0,0,0,0,3610,0,2.83,,73,13.86,25,,,,1.95,46.88,,,,,,40.84655,-96.767471,0,1191.9,8,3,1.8
50044,1.56E+12,0.65,1.91,0.42,0.31,1.03,1.04,1.69,15.04,0,0.01,-0.99,0,0,0,0,0,0,0,3610,0,2.83,70,73,13.8,25,40,33,32,1.88,47.6,14.5,960,463,229,987,40.84655,-96.767471,0,1191.9,8,3,1.8
50084,1.56E+12,0.64,1.91,0.41,0.32,1.01,0.97,1.69,,-0.01,-0.01,-1.02,0,0,0,0,0,0,0,3617,0,2.83,,73,13.69,25,,,,1.88,47.6,,,,,,40.84655,-96.767471,0,1191.9,8,3,1.8
50124,1.56E+12,0.64,1.92,0.41,0.3,1.02,1.03,1.69,,-0.02,-0.01,-1.03,0,0,0,0,0,0,0,3609,0,2.81,,73,13.64,25,,,,1.88,47.6,,,,,,40.84655,-96.767471,0,1191.9,8,3,1.8
50164,1.56E+12,0.62,1.93,0.4,0.35,1.05,1.03,1.69,,-0.01,-0.03,-1.02,0,0,0,0,0,0,0,3585,0,2.81,,73,13.57,25,,,,1.81,46.13,,,,,,40.84655,-96.767471,0,1191.9,8,3,1.8
50204,1.56E+12,0.65,1.95,0.46,0.35,1.02,0.97,1.69,,0,0,-1.02,0,0,0,0,0,0,0,3583,0,2.81,,73,13.57,25,,,,1.81,46.13,,,,,,40.84655,-96.767471,0,1191.9,8,3,1.8
50244,1.56E+12,0.61,1.93,0.42,0.32,1.06,1.04,1.69,,0,0,-1.02,0,0,0,0,0,0,0,3583,0,2.81,,73,13.55,25,,,,1.77,46.33,,,,,,40.84655,-96.767471,0,1191.9,8,3,1.8
50284,1.56E+12,0.62,1.89,0.41,0.36,1,1.01,1.69,,-0.01,-0.01,-1.04,0,0,0,0,0,0,0,3602,0,2.8,,73,13.52,25,,,,1.77,46.33,,,,,,40.84655,-96.767471,0,1191.9,8,3,1.8
50324,1.56E+12,0.6,1.92,0.46,0.36,1.03,0.99,1.69,,-0.02,-0.01,-1.04,0,0,0,0,0,0,0,3577,0,2.8,,74,13.52,25,,,,1.77,46.33,,,,,,40.84655,-96.767471,0,1191.9,8,3,1.8
50364,1.56E+12,0.62,1.94,0.42,0.36,1.05,1.03,1.69,,-0.01,-0.03,-1.02,0,0,0,0,0,0,0,3622,0,2.8,,74,13.49,25,,,,1.77,47,,,,,,40.84655,-96.767471,0,1191.9,8,3,1.8
50404,1.56E+12,0.65,1.94,0.46,0.35,1.03,0.99,1.69,,0,0,-1.02,0,0,0,0,0,0,0,3588,0,2.79,,74,13.49,25,,,,1.77,47,,,,,,40.84655,-96.767471,0,1191.9,8,3,1.8
50444,1.56E+12,0.61,1.9,0.41,0.35,1.05,1.03,1.69,,0,0.02,-1.01,0,0,0,0,0,0,0,3588,0,2.79,,74,13.51,25,,,,1.76,46.13,,,,,,40.84655,-96.767471,0,1191.9,8,3,1.8
50484,1.56E+12,0.61,1.89,0.42,0.36,1.02,1.02,1.69,,-0.01,0.01,-1.03,0,0,0,0,0,0,0,3613,0,2.79,,74,13.49,25,,,,1.76,46.13,,,,,,40.84655,-96.767471,0,1191.9,8,3,1.8
50524,1.56E+12,0.65,1.94,0.45,0.35,1.01,0.97,1.69,,-0.03,-0.01,-1.04,0,0,0,0,0,0,0,3578,0,2.79,,74,13.54,25,,,,1.76,46.13,,,,,,40.84655,-96.767471,0,1191.9,8,3,1.8
50564,1.56E+12,0.65,1.92,0.46,0.35,1.03,1.01,1.69,,-0.01,-0.03,-1.02,0,0,0,0,0,0,0,3566,0,2.79,,74,13.63,25,,,,1.8,46.73,,,,,,40.84655,-96.767471,0,1191.9,8,3,1.8
50604,1.56E+12,0.65,1.94,0.45,0.35,1.02,0.97,1.69,,0,0.03,-1,0,0,0,0,0,0,0,3604,0,2.79,,74,13.63,25,,,,1.8,46.73,,,,,,40.84655,-96.767471,0,1191.9,8,3,1.8
50644,1.56E+12,0.64,1.94,0.44,0.34,1.01,0.97,1.69,,0,0.04,-1,0,0,0,0,0,0,0,3604,0,2.79,,74,13.69,25,,,,1.86,46.73,,,,,,40.84655,-96.767471,0,1191.9,8,3,1.8
50684,1.56E+12,0.61,1.88,0.44,0.37,1.05,1.04,1.69,,0,0.01,-1.02,0,0,0,0,0,0,0,3634,0,2.79,,74,13.69,25,,,,1.86,46.73,,,,,,40.84655,-96.767471,0,1191.9,8,3,1.8
50724,1.56E+12,0.64,1.92,0.4,0.3,1.04,1.03,1.69,,-0.02,-0.01,-1.03,0,0,0,0,0,0,0,3620,0,2.8,,74,13.63,25,,,,1.86,46.73,,,,,,40.84655,-96.767471,0,1191.9,8,3,1.8
50764,1.56E+12,0.59,1.95,0.47,0.35,1.05,1.03,1.69,,-0.03,-0.02,-1.02,0,0,0,0,0,0,0,3650,0,2.8,,73,13.7,25,,,,1.85,46.25,,,,,,40.84655,-96.767471,0,1191.9,8,3,1.8
50804,1.56E+12,0.63,1.91,0.41,0.33,1.05,1.03,1.69,,-0.01,-0.01,-1.01,0,0,0,0,0,0,0,3654,0,2.8,,73,13.7,25,,,,1.85,46.25,,,,,,40.84655,-96.767471,0,1191.9,8,3,1.8
50844,1.56E+12,0.63,1.94,0.44,0.33,1,0.97,1.69,,0.01,0,-0.99,0,0,0,0,0,0,0,3654,0,2.8,,73,13.7,25,,,,1.86,46.33,,,,,,40.84655,-96.767471,0,1191.9,8,3,1.8
50884,1.56E+12,0.64,1.92,0.41,0.3,1.02,0.96,1.69,,0,0,-0.99,0,0,0,0,0,0,0,3708,0,2.82,,73,13.73,25,,,,1.86,46.33,,,,,,40.84655,-96.767471,0,1191.9,8,3,1.8
50924,1.56E+12,0.6,1.91,0.46,0.36,1.04,1.01,1.69,,0.02,0.03,-0.97,0,0,0,0,0,0,0,3675,0,2.82,,73,13.76,25,,,,1.86,46.33,,,,,,40.84655,-96.767471,0,1191.9,8,3,1.8
50964,1.56E+12,0.62,1.93,0.41,0.33,1,0.96,1.69,,0.02,0.04,-0.99,0,0,0,0,0,0,0,3678,0,2.82,,73,13.86,25,,,,1.91,46.73,,,,,,40.84655,-96.767471,0,1191.9,8,3,1.8
51004,1.56E+12,0.61,1.93,0.46,0.36,1.03,1,1.69,,0.02,0.03,-0.99,0,0,0,0,0,0,0,3682,0,2.83,,73,13.86,25,,,,1.91,46.73,,,,,,40.84655,-96.767471,0,1191.9,8,3,1.8
51044,1.56E+12,0.61,1.9,0.41,0.35,1.05,1.02,1.69,14.96,0.01,0.01,-1.01,0,0,0,0,0,0,0,3682,0,2.83,70,73,13.89,25,40,34,32,1.96,46.05,14.5,981,460,233,984,40.84655,-96.767471,0,1191.9,8,3,1.8
51084,1.56E+12,0.65,1.94,0.43,0.31,1,0.97,1.69,,0,0.02,-1.03,0,0,0,0,0,0,0,3639,0,2.83,,73,13.92,25,,,,1.96,46.05,,,,,,40.84655,-96.767471,0,1191.9,8,3,1.8
51124,1.56E+12,0.63,1.91,0.41,0.34,1.05,1.03,1.69,,-0.02,-0.01,-1.02,0,0,0,0,0,0,0,3633,0,2.83,,73,13.83,25,,,,1.96,46.05,,,,,,40.84655,-96.767471,0,1191.9,8,3,1.8
51164,1.56E+12,0.61,1.9,0.45,0.31,1.04,1.03,1.69,,-0.02,0.01,-1.03,0,0,0,0,0,0,0,3666,0,2.81,,73,13.77,25,,,,1.92,47.08,,,,,,40.84655,-96.767471,0,1191.9,8,3,1.8
51204,1.56E+12,0.63,1.92,0.41,0.33,1.05,1.03,1.69,,0,0.01,-1,0,0,0,0,0,0,0,3620,0,2.81,,73,13.77,25,,,,1.92,47.08,,,,,,40.84655,-96.767471,0,1191.9,8,3,1.8
51244,1.56E+12,0.65,1.94,0.46,0.35,1.02,0.97,1.69,,0,0,-0.99,0,0,0,0,0,0,0,3620,0,2.81,,73,13.69,25,,,,1.83,47.8,,,,,,40.84655,-96.767471,0,1191.9,8,3,1.8
51284,1.56E+12,0.65,1.94,0.45,0.34,1,1,1.69,,0.01,0.01,-1.01,0,0,0,0,0,0,0,3626,0,2.81,,73,13.61,25,,,,1.83,47.8,,,,,,40.84655,-96.767471,0,1191.9,8,3,1.8
51324,1.56E+12,0.64,1.93,0.41,0.32,1.05,1.03,1.69,,0.01,0.02,-1.02,0,0,0,0,0,0,0,3668,0,2.82,,73,13.57,25,,,,1.83,47.8,,,,,,40.84655,-96.767471,0,1191.9,8,3,1.8
51364,1.56E+12,0.67,1.95,0.46,0.38,1.06,1.01,1.69,,-0.01,-0.02,-1.02,0,0,0,0,0,0,0,3681,0,2.82,,73,13.6,25,,,,1.79,47.73,,,,,,40.84655,-96.767471,0,1191.9,8,3,1.8
51404,1.56E+12,0.65,1.93,0.42,0.32,1.02,1.03,1.69,,-0.02,0,-1.03,0,0,0,0,0,0,0,3662,0,2.82,,73,13.6,25,,,,1.79,47.73,,,,,,40.84655,-96.767471,0,1191.9,8,3,1.8
51444,1.56E+12,0.63,1.88,0.43,0.31,0.99,1.03,1.69,,-0.02,-0.01,-1.02,0,0,0,0,0,0,0,3662,0,2.82,,73,13.66,25,,,,1.85,47.27,,,,,,40.84655,-96.767471,0,1191.9,8,3,1.8
51484,1.56E+12,0.59,1.91,0.46,0.35,1.03,1.03,1.69,,-0.01,0,-1.01,0,0,0,0,0,0,0,3616,0,2.83,,73,13.72,25,,,,1.85,47.27,,,,,,40.84655,-96.767471,0,1191.9,8,3,1.8
51524,1.56E+12,0.61,1.94,0.46,0.36,1.03,0.99,1.69,,0.01,0.03,-0.99,0,0,0,0,0,0,0,3609,0,2.83,,73,13.76,25,,,,1.85,47.27,,,,,,40.84655,-96.767471,0,1191.9,8,3,1.8
51564,1.56E+12,0.67,1.95,0.45,0.34,1.04,1,1.69,,0,0.01,-1,0,0,0,0,0,0,0,3587,0,2.83,,73,13.73,25,,,,1.88,46.48,,,,,,40.84655,-96.767471,0,1191.9,8,3,1.8
51604,1.56E+12,0.63,1.92,0.4,0.32,1.05,1.03,1.69,,0,0,-1.02,0,0,0,0,0,0,0,3624,0,2.8,,73,13.73,25,,,,1.88,46.48,,,,,,40.84655,-96.767471,0,1191.9,8,3,1.8
51644,1.56E+12,0.62,1.92,0.44,0.33,0.99,0.99,1.69,,-0.02,0,-1.04,0,0,0,0,0,0,0,3624,0,2.8,,74,13.72,25,,,,1.85,47.2,,,,,,40.84655,-96.767471,0,1191.9,8,3,1.8
51684,1.56E+12,0.66,1.94,0.46,0.35,1.02,1.02,1.69,,-0.01,0,-1.01,0,0,0,0,0,0,0,3618,0,2.8,,74,13.64,25,,,,1.85,47.2,,,,,,40.84655,-96.767471,0,1191.9,8,3,1.8
51724,1.56E+12,0.66,1.94,0.44,0.31,0.99,1.01,1.69,,0.01,0.01,-1,0,0,0,0,0,0,0,3614,0,2.8,,73,13.63,25,,,,1.85,47.2,,,,,,40.84655,-96.767471,0,1191.9,8,3,1.8
51764,1.56E+12,0.63,1.9,0.41,0.35,1,1.01,1.69,,0.01,0.01,-0.98,0,0,0,0,0,0,0,3640,0,2.79,,73,13.67,25,,,,1.82,47.08,,,,,,40.84655,-96.767471,0,1191.9,8,3,1.8
51804,1.56E+12,0.65,1.96,0.44,0.33,1,0.98,1.69,,0.01,0,-1,0,0,0,0,0,0,0,3632,0,2.79,,73,13.67,25,,,,1.82,47.08,,,,,,40.84655,-96.767471,0,1191.9,8,3,1.8
51844,1.56E+12,0.6,1.9,0.41,0.34,1.05,1.03,1.69,,0,-0.01,-1.03,0,0,0,0,0,0,0,3632,0,2.79,,73,13.69,25,,,,1.85,46.73,,,,,,40.84655,-96.767471,0,1191.9,8,3,1.8
51884,1.56E+12,0.65,1.95,0.43,0.32,0.98,1,1.69,,-0.01,-0.01,-1.03,0,0,0,0,0,0,0,3660,0,2.79,,73,13.69,25,,,,1.85,46.73,,,,,,40.84655,-96.767471,0,1191.9,8,3,1.8
51924,1.56E+12,0.66,1.95,0.43,0.33,0.99,0.98,1.69,,-0.02,-0.01,-1.01,0,0,0,0,0,0,0,3618,0,2.8,,73,13.73,25,,,,1.85,46.73,,,,,,40.84655,-96.767471,0,1191.9,8,3,1.8
51964,1.56E+12,0.6,1.89,0.46,0.36,1.03,1.04,1.69,,0,-0.01,-1,0,0,0,0,0,0,0,3605,0,2.8,,74,13.74,25,,,,1.87,46.25,,,,,,40.84655,-96.767471,0,1191.9,8,3,1.8
52004,1.56E+12,0.64,1.95,0.46,0.35,1.03,0.98,1.69,,0,0,-1,0,0,0,0,0,0,0,3566,0,2.8,,74,13.74,25,,,,1.87,46.25,,,,,,40.84655,-96.767471,0,1191.9,8,3,1.8
52044,1.56E+12,0.63,1.92,0.46,0.33,0.99,0.99,1.69,15.01,0.01,0.01,-1.01,0,0,0,0,0,0,0,3566,0,2.8,70,74,13.76,25,40,34,32,1.88,46.8,14.5,985,464,218,986,40.84655,-96.767471,0,1191.9,8,3,1.8
52084,1.56E+12,0.63,1.92,0.39,0.32,1.04,1.02,1.69,,-0.01,0,-1.02,0,0,0,0,0,0,0,3611,0,2.79,,74,13.7,25,,,,1.88,46.8,,,,,,40.84655,-96.767471,0,1191.9,8,3,1.8
52124,1.56E+12,0.64,1.93,0.41,0.31,1.05,1.04,1.69,,-0.01,-0.01,-1.02,0,0,0,0,0,0,0,3589,0,2.79,,74,13.66,25,,,,1.88,46.8,,,,,,40.84655,-96.767471,0,1191.9,8,3,1.8
52164,1.56E+12,0.65,1.94,0.42,0.31,1.02,0.97,1.69,,0.01,0,-1.01,0,0,0,0,0,0,0,3587,0,2.79,,74,13.63,25,,,,1.83,46.92,,,,,,40.84655,-96.767471,0,1191.9,8,3,1.8
52204,1.56E+12,0.66,1.96,0.43,0.32,0.99,1.01,1.69,,0,0.02,-1,0,0,0,0,0,0,0,3542,0,2.79,,74,13.63,25,,,,1.83,46.92,,,,,,40.84655,-96.767471,0,1191.9,8,3,1.8
52244,1.56E+12,0.67,1.96,0.44,0.36,1.04,1,1.69,,-0.02,0,-1.02,0,0,0,0,0,0,0,3542,0,2.79,,74,13.58,25,,,,1.8,45.73,,,,,,40.84655,-96.767471,0,1191.9,8,3,1.8
52284,1.56E+12,0.65,1.94,0.42,0.31,1.02,1.03,1.69,,-0.01,-0.02,-1.01,0,0,0,0,0,0,0,3573,0,2.79,,74,13.52,25,,,,1.8,45.73,,,,,,40.84655,-96.767471,0,1191.9,8,3,1.8
52324,1.56E+12,0.65,1.94,0.43,0.32,1,1.01,1.69,,0.01,-0.01,-1,0,0,0,0,0,0,0,3578,0,2.79,,74,13.49,25,,,,1.8,45.73,,,,,,40.84655,-96.767471,0,1191.9,8,3,1.8
52364,1.56E+12,0.61,1.9,0.46,0.37,1.05,1.03,1.69,,0.01,-0.01,-0.99,0,0,0,0,0,0,0,3605,0,2.77,,74,13.51,25,,,,1.75,47.08,,,,,,40.84655,-96.767471,0,1191.9,8,3,1.8
52404,1.56E+12,0.61,1.92,0.46,0.37,1.05,1.02,1.69,,0,-0.01,-1.02,0,0,0,0,0,0,0,3647,0,2.77,,74,13.51,25,,,,1.75,47.08,,,,,,40.84655,-96.767471,0,1191.9,8,3,1.8
52444,1.56E+12,0.66,1.95,0.47,0.36,1.04,1,1.69,,0.01,-0.01,-1.03,0,0,0,0,0,0,0,3647,0,2.77,,74,13.55,25,,,,1.82,46.8,,,,,,40.84655,-96.767471,0,1191.9,8,3,1.8
52484,1.56E+12,0.65,1.96,0.47,0.36,1.03,0.99,1.69,,-0.01,-0.01,-1.03,0,0,0,0,0,0,0,3657,0,2.77,,73,13.69,25,,,,1.82,46.8,,,,,,40.84655,-96.767471,0,1191.9,8,3,1.8
52524,1.56E+12,0.62,1.93,0.42,0.31,1.02,1.03,1.69,,-0.02,-0.01,-1.03,0,0,0,0,0,0,0,3636,0,2.81,,73,13.8,25,,,,1.82,46.8,,,,,,40.84655,-96.767471,0,1191.9,8,3,1.8
52564,1.56E+12,0.65,1.95,0.46,0.36,1.05,1.02,1.69,,0,0.01,-1.01,0,0,0,0,0,0,0,3589,0,2.81,,73,13.91,25,,,,1.94,46.6,,,,,,40.84655,-96.767471,0,1191.9,8,3,1.8
52604,1.56E+12,0.65,1.94,0.44,0.32,1,1.01,1.69,,0,0.01,-0.99,0,0,0,0,0,0,0,3612,0,2.8,,73,13.91,25,,,,1.94,46.6,,,,,,40.84655,-96.767471,0,1191.9,8,3,1.8
52644,1.56E+12,0.61,1.95,0.46,0.35,1.06,1.03,1.69,,0.01,0.03,-0.99,0,0,0,0,0,0,0,3612,0,2.8,,73,13.97,25,,,,2,46.6,,,,,,40.84655,-96.767471,0,1191.9,8,3,1.8
52684,1.56E+12,0.64,1.93,0.41,0.3,1.04,1.01,1.69,,0.01,0,-1.02,0,0,0,0,0,0,0,3637,0,2.8,,73,13.98,25,,,,2,46.6,,,,,,40.84655,-96.767471,0,1191.9,8,3,1.8
52724,1.56E+12,0.61,1.95,0.41,0.34,1.06,1.04,1.7,,-0.01,-0.02,-1.03,0,0,0,0,0,0,0,3650,0,2.8,,73,13.89,25,,,,2,46.6,,,,,,40.84655,-96.767471,0,1191.9,8,3,1.8
52764,1.56E+12,0.6,1.93,0.46,0.36,1.03,1.04,1.7,,-0.01,0.01,-1.03,0,0,0,0,0,0,0,3639,0,2.79,,73,13.86,25,,,,1.94,47.67,,,,,,40.84655,-96.767471,0,1191.9,8,3,1.8
52804,1.56E+12,0.61,1.97,0.47,0.36,1.01,0.96,1.69,,-0.02,-0.01,-1.01,0,0,0,0,0,0,0,3656,0,2.77,,73,13.86,25,,,,1.94,47.67,,,,,,40.84655,-96.767471,0,1191.9,8,3,1.8
52844,1.56E+12,0.61,1.9,0.42,0.31,1,1.02,1.69,,-0.02,0,-1,0,0,0,0,0,0,0,3656,0,2.77,,74,13.8,25,,,,1.9,47.88,,,,,,40.84655,-96.767471,0,1191.9,8,3,1.8
52884,1.56E+12,0.61,1.91,0.44,0.36,1.04,1.01,1.69,,0,0.03,-1,0,0,0,0,0,0,0,3688,0,2.77,,74,13.77,25,,,,1.9,47.88,,,,,,40.84655,-96.767471,0,1191.9,8,3,1.8
52924,1.56E+12,0.65,1.95,0.46,0.35,1.02,0.98,1.69,,0.01,0.02,-0.98,0,0,-1,0,0,0,0,3703,0,2.79,,73,13.77,25,,,,1.9,47.88,,,,,,40.84655,-96.767471,0,1191.9,8,3,1.8
52964,1.56E+12,0.64,1.93,0.41,0.31,1.03,0.97,1.69,,0,0.01,-0.98,0,0,0,0,0,0,0,3701,0,2.8,,73,13.83,25,,,,1.9,48.2,,,,,,40.84655,-96.767471,0,1191.9,8,3,1.8
53004,1.56E+12,0.66,1.96,0.46,0.35,1.02,0.98,1.69,,0.01,0.03,-0.98,0,0,0,0,0,0,0,3697,0,2.8,,73,13.83,25,,,,1.9,48.2,,,,,,40.84655,-96.767471,0,1191.9,8,3,1.8
53044,1.56E+12,0.61,1.9,0.46,0.31,1.04,1.04,1.69,14.97,0.02,0.01,-1.01,0,0,0,0,0,0,0,3697,0,2.8,70,73,13.92,25,41,34,32,1.98,47.95,14.5,983,463,278,984,40.84655,-96.767471,0,1191.9,8,3,1.8
53084,1.56E+12,0.62,1.91,0.46,0.37,1.05,1.02,1.69,,0.01,0.01,-1,0,0,0,0,0,0,0,3688,0,2.79,,73,13.97,25,,,,1.98,47.95,,,,,,40.84655,-96.767471,0,1191.9,8,3,1.8
53124,1.56E+12,0.66,1.94,0.46,0.36,1.04,1.01,1.68,,0.01,-0.01,-1.03,0,0,0,0,0,0,0,3700,0,2.79,,73,13.95,25,,,,1.98,47.95,,,,,,40.84655,-96.767471,0,1191.9,8,3,1.8
53164,1.56E+12,0.62,1.95,0.44,0.36,1.01,1.02,1.69,,0,-0.01,-1.04,0,0,0,0,0,0,0,3672,0,2.79,,73,13.86,25,,,,1.97,48.15,,,,,,40.84655,-96.767471,0,1191.9,8,3,1.8
53204,1.56E+12,0.59,1.93,0.44,0.35,1.02,0.98,1.69,,-0.01,-0.02,-1.03,0,0,0,0,0,0,0,3664,0,2.79,,73,13.86,25,,,,1.97,48.15,,,,,,40.84655,-96.767471,0,1191.9,8,3,1.8
53244,1.56E+12,0.61,1.9,0.42,0.31,0.99,1.01,1.69,,-0.02,-0.02,-1.02,0,0,0,0,0,0,0,3664,0,2.79,,73,13.82,25,,,,1.9,47.52,,,,,,40.84655,-96.767471,0,1191.9,8,3,1.8
53284,1.56E+12,0.63,1.96,0.46,0.35,1.02,0.97,1.69,,-0.02,-0.02,-1.02,0,0,0,0,0,0,0,3663,0,2.79,,73,13.74,25,,,,1.9,47.52,,,,,,40.84655,-96.767471,0,1191.9,8,3,1.8
53324,1.56E+12,0.63,1.96,0.44,0.32,0.99,1.01,1.69,,-0.02,-0.02,-1,0,0,-1,0,0,0,0,3674,0,2.79,,73,13.73,25,,,,1.9,47.52,,,,,,40.84655,-96.767471,0,1191.9,8,3,1.8
53364,1.56E+12,0.65,1.95,0.44,0.32,0.99,0.98,1.69,,-0.02,-0.04,-1,0,0,0,0,0,0,0,3677,0,2.8,,73,13.64,25,,,,1.84,46.73,,,,,,40.84655,-96.767471,0,1191.9,8,3,1.8
53404,1.56E+12,0.64,1.94,0.41,0.3,1.03,1.03,1.69,,0,-0.01,-1,0,0,0,0,0,0,0,3703,0,2.8,,73,13.64,25,,,,1.84,46.73,,,,,,40.84655,-96.767471,0,1191.9,8,3,1.8
53444,1.56E+12,0.62,1.9,0.42,0.37,1,1.02,1.69,,0.01,-0.01,-0.99,0,0,0,0,0,0,0,3703,0,2.8,,73,13.64,25,,,,1.83,47.6,,,,,,40.84655,-96.767471,0,1191.9,8,3,1.8
53484,1.56E+12,0.65,1.95,0.42,0.31,1.03,1.03,1.69,,0,0,-1,0,0,0,0,0,0,0,3662,0,2.8,,73,13.64,25,,,,1.83,47.6,,,,,,40.84655,-96.767471,0,1191.9,8,3,1.8
53524,1.56E+12,0.64,1.93,0.46,0.34,1.01,0.97,1.69,,0.01,0.02,-1,0,0,0,0,0,0,0,3641,0,2.8,,73,13.7,25,,,,1.83,47.6,,,,,,40.84655,-96.767471,0,1191.9,8,3,1.8
53564,1.56E+12,0.61,1.94,0.46,0.36,1.03,1.03,1.69,,-0.03,-0.02,-1.06,0,0,0,0,0,0,0,3645,0,2.79,,73,13.72,25,,,,1.86,46.92,,,,,,40.84655,-96.767471,0,1191.9,8,3,1.8
53604,1.56E+12,0.65,1.96,0.43,0.31,1,1.02,1.7,,-0.04,-0.02,-1.04,0,0,0,0,0,0,0,3634,0,2.8,,73,13.72,25,,,,1.86,46.92,,,,,,40.84655,-96.767471,0,1191.9,8,3,1.8
53644,1.56E+12,0.65,1.94,0.41,0.31,1.01,0.96,1.7,,-0.02,-0.02,-1.03,0,0,0,0,0,0,0,3634,0,2.8,,73,13.74,25,,,,1.87,46.67,,,,,,40.84655,-96.767471,0,1191.9,8,3,1.8
53684,1.56E+12,0.62,1.93,0.4,0.34,1.04,1.03,1.7,,-0.01,-0.01,-1.01,0,0,0,0,0,0,0,3650,0,2.78,,73,13.69,25,,,,1.87,46.67,,,,,,40.84655,-96.767471,0,1191.9,8,3,1.8
53724,1.56E+12,0.62,1.91,0.42,0.31,0.99,1.01,1.7,,-0.01,-0.01,-1,0,0,0,0,0,0,0,3660,0,2.78,,73,13.61,25,,,,1.87,46.67,,,,,,40.84655,-96.767471,0,1191.9,8,3,1.8
53764,1.56E+12,0.63,1.94,0.41,0.32,1.05,0.98,1.7,,0.01,0,-1.01,0,0,0,0,0,0,0,3676,0,2.79,,73,13.57,25,,,,1.8,46.8,,,,,,40.84655,-96.767471,0,1191.9,8,3,1.8
53804,1.56E+12,0.66,1.95,0.44,0.32,0.99,1,1.7,,0,0,-1.01,0,0,0,0,0,0,0,3667,0,2.79,,73,13.57,25,,,,1.8,46.8,,,,,,40.84655,-96.767471,0,1191.9,8,3,1.8
53844,1.56E+12,0.61,1.91,0.45,0.36,1.04,1.03,1.7,,0,-0.01,-1.04,0,0,0,0,0,0,0,3667,0,2.79,,73,13.55,25,,,,1.8,46.92,,,,,,40.84655,-96.767471,0,1191.9,8,3,1.8
53884,1.56E+12,0.66,1.95,0.45,0.34,1,0.95,1.69,,-0.01,-0.01,-1.04,0,0,0,0,0,0,0,3651,0,2.79,,73,13.58,25,,,,1.8,46.92,,,,,,40.84655,-96.767471,0,1191.9,8,3,1.8
53924,1.56E+12,0.65,1.95,0.46,0.35,1.02,0.98,1.69,,-0.03,-0.02,-1.04,0,0,0,0,0,0,0,3661,0,2.79,,73,13.6,25,,,,1.8,46.92,,,,,,40.84655,-96.767471,0,1191.9,8,3,1.8
53964,1.56E+12,0.63,1.96,0.47,0.36,1.03,0.98,1.69,,-0.02,-0.01,-1.03,0,0,0,0,0,0,0,3628,0,2.79,,73,13.66,25,,,,1.82,47.4,,,,,,40.84655,-96.767471,0,1191.9,8,3,1.8
54004,1.56E+12,0.64,1.93,0.41,0.32,1.05,1.03,1.69,,-0.01,0,-1.01,0,0,0,0,0,0,0,3623,0,2.79,,73,13.66,25,,,,1.82,47.4,,,,,,40.84655,-96.767471,0,1191.9,8,3,1.8
54044,1.56E+12,0.65,1.95,0.42,0.31,1.03,0.97,1.69,15.18,-0.01,0,-1,0,0,0,0,0,0,0,3623,0,2.79,70,73,13.66,25,41,34,32,1.85,47.52,14.5,984,467,202,985,40.84655,-96.767471,0,1191.9,8,3,1.8
54084,1.56E+12,0.64,1.95,0.47,0.36,1.03,0.99,1.69,,0,0,-1.01,0,0,0,0,0,0,0,3637,0,2.79,,73,13.7,25,,,,1.85,47.52,,,,,,40.84655,-96.767471,0,1191.9,8,3,1.8
54124,1.56E+12,0.64,1.94,0.47,0.36,1.01,0.97,1.69,,-0.02,-0.01,-1.03,0,0,0,0,0,0,0,3618,0,2.77,,73,13.7,25,,,,1.85,47.52,,,,,,40.84655,-96.767471,0,1191.9,8,3,1.8
54164,1.56E+12,0.61,1.97,0.46,0.36,1.04,0.99,1.69,,-0.03,-0.01,-1.02,0,0,0,0,0,0,0,3610,0,2.79,,73,13.7,25,,,,1.86,46.33,,,,,,40.84655,-96.767471,0,1191.9,8,3,1.8
54204,1.56E+12,0.63,1.94,0.4,0.32,1.05,1.03,1.69,,-0.01,0.01,-1.01,0,0,0,0,0,0,0,3591,0,2.77,,73,13.7,25,,,,1.86,46.33,,,,,,40.84655,-96.767471,0,1191.9,8,3,1.8
54244,1.56E+12,0.65,1.95,0.42,0.31,1.01,0.97,1.69,,0.01,0,-1,0,0,0,0,0,0,0,3591,0,2.77,,73,13.66,25,,,,1.83,46.8,,,,,,40.84655,-96.767471,0,1191.9,8,3,1.8
54284,1.56E+12,0.61,1.92,0.46,0.36,1.04,1.01,1.69,,0.01,0.01,-1.01,0,0,0,0,0,0,0,3569,0,2.79,,73,13.61,25,,,,1.83,46.8,,,,,,40.84655,-96.767471,0,1191.9,8,3,1.8
54324,1.56E+12,0.64,1.95,0.45,0.35,1.03,0.99,1.69,,-0.01,-0.01,-1.04,0,0,1,0,0,0,0,3591,0,2.78,,73,13.58,25,,,,1.83,46.8,,,,,,40.84655,-96.767471,0,1191.9,8,3,1.8
54364,1.56E+12,0.64,1.95,0.42,0.31,1.04,1.03,1.69,,-0.01,-0.02,-1.03,0,0,0,0,0,0,0,3561,0,2.78,,74,13.64,25,,,,1.81,47.33,,,,,,40.84655,-96.767471,0,1191.9,8,3,1.8
54404,1.56E+12,0.66,1.94,0.46,0.36,1.04,1.01,1.69,,0,-0.01,-1.01,0,0,0,0,0,0,0,3569,0,2.78,,74,13.64,25,,,,1.81,47.33,,,,,,40.84655,-96.767471,0,1191.9,8,3,1.8
54444,1.56E+12,0.6,1.94,0.46,0.36,1.05,1.03,1.69,,0,0.02,-1,0,0,0,0,0,0,0,3569,0,2.78,,74,13.67,25,,,,1.86,46.33,,,,,,40.84655,-96.767471,0,1191.9,8,3,1.8
54484,1.56E+12,0.62,1.91,0.41,0.35,1.04,1.02,1.69,,0,0.01,-1.02,0,0,0,0,0,0,0,3571,0,2.78,,74,13.7,25,,,,1.86,46.33,,,,,,40.84655,-96.767471,0,1191.9,8,3,1.8
54524,1.56E+12,0.66,1.95,0.46,0.36,1.03,0.99,1.69,,-0.02,-0.01,-1.02,0,0,0,0,0,0,0,3619,0,2.78,,74,13.7,25,,,,1.86,46.33,,,,,,40.84655,-96.767471,0,1191.9,8,3,1.8
54564,1.56E+12,0.61,1.92,0.45,0.37,1.05,1.02,1.69,,-0.03,-0.01,-1.03,0,0,0,0,0,0,0,3636,0,2.78,,74,13.72,25,,,,1.86,47.67,,,,,,40.84655,-96.767471,0,1191.9,8,3,1.8
54604,1.56E+12,0.63,1.95,0.44,0.33,1,0.97,1.69,,-0.01,0,-1.01,0,0,0,0,0,0,0,3641,0,2.78,,74,13.72,25,,,,1.86,47.67,,,,,,40.84655,-96.767471,0,1191.9,8,3,1.8
54644,1.56E+12,0.66,1.97,0.44,0.32,1.03,0.99,1.69,,0,0.01,-0.99,0,0,0,0,0,0,0,3641,0,2.78,,73,13.7,25,,,,1.87,47.88,,,,,,40.84655,-96.767471,0,1191.9,8,3,1.8
54684,1.56E+12,0.65,1.98,0.47,0.34,1,0.98,1.69,,0.01,0.03,-0.98,0,0,0,0,0,0,0,3639,0,2.78,,73,13.74,25,,,,1.87,47.88,,,,,,40.84655,-96.767471,0,1191.9,8,3,1.8
54724,1.56E+12,0.64,1.94,0.41,0.35,1.02,0.97,1.7,,0.01,0,-1.01,0,0,0,0,0,0,0,3641,0,2.77,,74,13.85,25,,,,1.87,47.88,,,,,,40.84655,-96.767471,0,1191.9,8,3,1.8
54764,1.56E+12,0.64,1.93,0.41,0.3,1.02,1.03,1.69,,-0.01,-0.03,-1.01,0,0,0,0,0,0,0,3601,0,2.77,,74,13.99,25,,,,1.96,47.27,,,,,,40.84655,-96.767471,0,1191.9,8,3,1.8
54804,1.56E+12,0.66,1.93,0.46,0.36,1.04,1.01,1.69,,-0.02,-0.01,-1.02,0,0,0,0,0,0,0,3583,0,2.77,,74,13.99,25,,,,1.96,47.27,,,,,,40.84655,-96.767471,0,1191.9,8,3,1.8
54844,1.56E+12,0.62,1.93,0.43,0.36,1.05,1.03,1.7,,0,0,-0.98,0,0,0,0,0,0,0,3583,0,2.77,,74,13.97,25,,,,1.98,46.92,,,,,,40.84655,-96.767471,0,1191.9,8,3,1.8
54884,1.56E+12,0.65,1.95,0.41,0.32,1.03,1.03,1.7,,0,0.02,-1,0,0,0,0,0,0,0,3574,0,2.79,,74,13.88,25,,,,1.98,46.92,,,,,,40.84655,-96.767471,0,1191.9,8,3,1.8
54924,1.56E+12,0.6,1.94,0.46,0.34,1.05,1.02,1.7,,-0.02,-0.02,-1.04,0,0,0,0,0,0,0,3556,0,2.79,,74,13.8,25,,,,1.98,46.92,,,,,,40.84655,-96.767471,0,1191.9,8,3,1.8
54964,1.56E+12,0.66,1.96,0.44,0.32,1,0.99,1.69,,0.02,0,-1.01,0,0,0,0,0,0,0,3498,0,2.79,,74,13.69,25,,,,1.88,47.27,,,,,,40.84655,-96.767471,0,1191.9,8,3,1.8
55004,1.56E+12,0.6,1.93,0.4,0.33,1.05,1.03,1.69,,0,0.02,-0.99,0,0,0,0,0,0,0,3481,0,2.78,,74,13.69,25,,,,1.88,47.27,,,,,,40.84655,-96.767471,0,1191.9,8,3,1.8
55044,1.56E+12,0.65,1.96,0.45,0.35,1.02,1.02,1.69,15.14,-0.02,-0.03,-1.02,0,0,0,0,0,0,0,3481,0,2.78,70,74,13.64,25,41,34,32,1.81,47.6,14.5,984,470,152,986,40.84655,-96.767471,0,1191.9,8,3,1.8
55084,1.56E+12,0.63,1.94,0.4,0.33,1.05,1.03,1.69,,0.02,-0.01,-0.99,0,0,0,0,0,0,0,3485,0,2.78,,74,13.64,25,,,,1.81,47.6,,,,,,40.84655,-96.767471,0,1191.9,8,3,1.8
55124,1.56E+12,0.63,1.93,0.4,0.32,0.99,0.99,1.69,,0,0.02,-1,0,0,0,0,0,0,0,3534,0,2.78,,74,13.66,25,,,,1.81,47.6,,,,,,40.84655,-96.767471,0,1191.9,8,3,1.8
55164,1.56E+12,0.62,1.91,0.42,0.36,1.04,1.01,1.69,,-0.03,-0.03,-1.03,0,0,0,0,0,0,0,3543,0,2.76,,74,13.63,25,,,,1.82,46.2,,,,,,40.84655,-96.767471,0,1191.9,8,3,1.8
55204,1.56E+12,0.64,1.97,0.46,0.34,1.01,0.96,1.7,,-0.01,-0.01,-1.01,0,0,0,0,0,0,0,3540,0,2.76,,74,13.63,25,,,,1.82,46.2,,,,,,40.84655,-96.767471,0,1191.9,8,3,1.8
55244,1.56E+12,0.65,1.96,0.43,0.31,1.02,0.97,1.7,,0.01,0.01,-0.98,0,0,0,0,0,0,0,3540,0,2.76,,74,13.64,25,,,,1.81,47.48,,,,,,40.84655,-96.767471,0,1191.9,8,3,1.8
55284,1.56E+12,0.61,1.96,0.47,0.37,1.03,1.02,1.69,,0,0.03,-1,0,0,0,0,0,0,0,3590,0,2.76,,74,13.63,25,,,,1.81,47.48,,,,,,40.84655,-96.767471,0,1191.9,8,3,1.8
55324,1.56E+12,0.67,1.97,0.46,0.35,1.03,1,1.69,,-0.01,0.02,-1.01,0,0,0,0,0,0,0,3590,0,2.79,,74,13.73,25,,,,1.81,47.48,,,,,,40.84655,-96.767471,0,1191.9,8,3,1.8
55364,1.56E+12,0.6,1.95,0.46,0.36,1.02,0.99,1.69,,-0.01,0.01,-0.99,0,0,0,0,0,0,0,3613,0,2.79,,74,13.82,25,,,,1.88,46.4,,,,,,40.84655,-96.767471,0,1191.9,8,3,1.8
